Attitude.Acc.X,EscFeedbackLeft.Rpm,Attitude.Filtered.Yaw,MotorSetpoint.Rmotor,Attitude.Mag.X,Attitude.Mag.Z,RC_channel.[4],RC_channel.[6],Debug.[0],RC_channel.[11],Attitude.Mag.Y,EscFeedbackLeft.Current,ActuatorsCommand.Left.Speed,Debug.[2],Attitude.Filtered.Pitch,ActuatorsCommand.Left.Newtons,RCN.[2],Status.CycleTime,Data.Position.[0],Attitude.Filtered.Roll,RC_channel.[8],EscFeedbackRight.Voltage,Status.Flag,Attitude.Acc.Y,Comp_gps.Dist,EscFeedbackRight.Current,RCN.[1],ServoAngle.RServoAngle,EscFeedbackRight.Rpm,ServoAngle.LServoAngle,RC_channel.[9],Comp_gps.Update,Data.rpy.[2],Altitude.Alt,Data.rpy.[1],Altitude.Vario,Data.Velocity.[0],Data.drpy.[0],RC_channel.[0],ActuatorsCommand.Right.Servo,RC_channel.[2],Data.drpy.[2],Comp_gps.Direction,Debug.[3],Analog.Vbat,GPS.Veloc,GPS.Lat,Attitude.Acc.Z,RC_channel.[5],GPS.Fix,Debug.[1],Attitude.Gyro.X,Attitude.Gyro.Y,Attitude.Gyro.Z,Data.Velocity.[1],Status.Sensor,ActuatorsCommand.Left.Servo,RC_channel.[10],ActuatorsCommand.Right.Speed,GPS.Numsats,Analog.Rssi,Data.Position.[2],RCN.[3],Data.rpy.[0],GPS.Alt,Status.Numi2cerror,MotorSetpoint.Lmotor,RCN.[0],Data.Position.[1],RCN.[4],ActuatorsCommand.Right.Newtons,RCN.[6],GPS.GGC,GPS.Long,RC_channel.[7],Data.drpy.[1],RC_channel.[1],EscFeedbackLeft.Voltage,RCN.[5],Data.Velocity.[2],Analog.Current,Analog.Power,RC_channel.[3],Status.Gccs
1,123,-1780,12,7,9,1500,300,1,400,8,1.100000023841858,3.299999952316284,3,-178,1.100000023841858,12,0,7.699999809265137,-178,600,4.400000095367432,0,2,1088,2.200000047683716,-12,-5,321,5,700,1,3.299999952316284,666,2.200000047683716,333,10.100000381469727,4.400000095367432,600,137.0,1000,6.599999904632568,-172,4,15,10900,23,3,800,1,2,4,5,6,11.109999656677246,0,128.0,100,4.400000095367432,5,1088,9.899999618530273,-12,1.100000023841858,1090,0,12,12,8.800000190734863,44,2.200000047683716,44,0,24,400,5.5,700,3.299999952316284,98,12.119999885559082,1234,0,1700,111
1,123,-1770,12,7,9,1500,300,1,400,8,1.100000023841858,3.299999952316284,3,-177,1.100000023841858,10,0,7.699999809265137,-177,600,4.400000095367432,0,2,1090,2.200000047683716,-10,-5,321,5,700,1,3.299999952316284,666,2.200000047683716,333,10.100000381469727,4.400000095367432,600,137.0,1000,6.599999904632568,-170,4,15,10920,23,3,800,1,2,4,5,6,11.109999656677246,0,128.0,100,4.400000095367432,5,1090,9.899999618530273,-10,1.100000023841858,1092,0,12,10,8.800000190734863,45,2.200000047683716,45,0,24,400,5.5,700,3.299999952316284,41,12.119999885559082,1234,0,1700,111
1,123,-1760,12,7,9,1500,300,1,400,8,1.100000023841858,3.299999952316284,3,-176,1.100000023841858,8,0,7.699999809265137,-176,600,4.400000095367432,0,2,1092,2.200000047683716,-8,-5,321,5,700,1,3.299999952316284,666,2.200000047683716,333,10.100000381469727,4.400000095367432,600,137.0,1000,6.599999904632568,-168,4,15,10940,23,3,800,1,2,4,5,6,11.109999656677246,0,128.0,100,4.400000095367432,5,1092,9.899999618530273,-8,1.100000023841858,1094,0,12,8,8.800000190734863,46,2.200000047683716,46,0,24,400,5.5,700,3.299999952316284,41,12.119999885559082,1234,0,1700,111
1,123,-1750,12,7,9,1500,300,1,400,8,1.100000023841858,3.299999952316284,3,-175,1.100000023841858,6,0,7.699999809265137,-175,600,4.400000095367432,0,2,1094,2.200000047683716,-6,-5,321,5,700,1,3.299999952316284,666,2.200000047683716,333,10.100000381469727,4.400000095367432,600,137.0,1000,6.599999904632568,-166,4,15,10960,23,3,800,1,2,4,5,6,11.109999656677246,0,128.0,100,4.400000095367432,5,1094,9.899999618530273,-6,1.100000023841858,1096,0,12,6,8.800000190734863,47,2.200000047683716,47,0,24,400,5.5,700,3.299999952316284,41,12.119999885559082,1234,0,1700,111
1,123,-1740,12,7,9,1500,300,1,400,8,1.100000023841858,3.299999952316284,3,-174,1.100000023841858,4,0,7.699999809265137,-174,600,4.400000095367432,0,2,1096,2.200000047683716,-4,-5,321,5,700,1,3.299999952316284,666,2.200000047683716,333,10.100000381469727,4.400000095367432,600,137.0,1000,6.599999904632568,-164,4,15,10980,23,3,800,1,2,4,5,6,11.109999656677246,0,128.0,100,4.400000095367432,5,1096,9.899999618530273,-4,1.100000023841858,1098,0,12,4,8.800000190734863,48,2.200000047683716,48,0,24,400,5.5,700,3.299999952316284,41,12.119999885559082,1234,0,1700,111
1,123,-1730,12,7,9,1500,300,1,400,8,1.100000023841858,3.299999952316284,3,-173,1.100000023841858,2,0,7.699999809265137,-173,600,4.400000095367432,0,2,1098,2.200000047683716,-2,-5,321,5,700,1,3.299999952316284,666,2.200000047683716,333,10.100000381469727,4.400000095367432,600,137.0,1000,6.599999904632568,-162,4,15,11000,23,3,800,1,2,4,5,6,11.109999656677246,0,128.0,100,4.400000095367432,5,1098,9.899999618530273,-2,1.100000023841858,1100,0,12,2,8.800000190734863,49,2.200000047683716,49,0,24,400,5.5,700,3.299999952316284,41,12.119999885559082,1234,0,1700,111
1,123,-1720,12,7,9,1500,300,1,400,8,1.100000023841858,3.299999952316284,3,-172,1.100000023841858,-2,0,7.699999809265137,-172,600,4.400000095367432,0,2,1100,2.200000047683716,2,-5,321,5,700,1,3.299999952316284,666,2.200000047683716,333,10.100000381469727,4.400000095367432,600,137.0,1000,6.599999904632568,-160,4,15,11020,23,3,800,1,2,4,5,6,11.109999656677246,0,128.0,100,4.400000095367432,5,1100,9.899999618530273,2,1.100000023841858,1102,0,12,-2,8.800000190734863,50,2.200000047683716,50,0,24,400,5.5,700,3.299999952316284,-54,12.119999885559082,1234,0,1700,111
1,123,-1710,12,7,9,1500,300,1,400,8,1.100000023841858,3.299999952316284,3,-171,1.100000023841858,-4,0,7.699999809265137,-171,600,4.400000095367432,0,2,1102,2.200000047683716,4,-5,321,5,700,1,3.299999952316284,666,2.200000047683716,333,10.100000381469727,4.400000095367432,600,137.0,1000,6.599999904632568,-158,4,15,11040,23,3,800,1,2,4,5,6,11.109999656677246,0,128.0,100,4.400000095367432,5,1102,9.899999618530273,4,1.100000023841858,1104,0,12,-4,8.800000190734863,51,2.200000047683716,51,0,24,400,5.5,700,3.299999952316284,-54,12.119999885559082,1234,0,1700,111
1,123,-1700,12,7,9,1500,300,1,400,8,1.100000023841858,3.299999952316284,3,-170,1.100000023841858,-6,0,7.699999809265137,-170,600,4.400000095367432,0,2,1104,2.200000047683716,6,-5,321,5,700,1,3.299999952316284,666,2.200000047683716,333,10.100000381469727,4.400000095367432,600,137.0,1000,6.599999904632568,-156,4,15,11060,23,3,800,1,2,4,5,6,11.109999656677246,0,128.0,100,4.400000095367432,5,1104,9.899999618530273,6,1.100000023841858,1106,0,12,-6,8.800000190734863,52,2.200000047683716,52,0,24,400,5.5,700,3.299999952316284,-54,12.119999885559082,1234,0,1700,111
1,123,-1690,12,7,9,1500,300,1,400,8,1.100000023841858,3.299999952316284,3,-169,1.100000023841858,-8,0,7.699999809265137,-169,600,4.400000095367432,0,2,1106,2.200000047683716,8,-5,321,5,700,1,3.299999952316284,666,2.200000047683716,333,10.100000381469727,4.400000095367432,600,137.0,1000,6.599999904632568,-154,4,15,11080,23,3,800,1,2,4,5,6,11.109999656677246,0,128.0,100,4.400000095367432,5,1106,9.899999618530273,8,1.100000023841858,1108,0,12,-8,8.800000190734863,53,2.200000047683716,53,0,24,400,5.5,700,3.299999952316284,-54,12.119999885559082,1234,0,1700,111
1,123,-1680,12,7,9,1500,300,1,400,8,1.100000023841858,3.299999952316284,3,-168,1.100000023841858,-10,0,7.699999809265137,-168,600,4.400000095367432,0,2,1108,2.200000047683716,10,-5,321,5,700,1,3.299999952316284,666,2.200000047683716,333,10.100000381469727,4.400000095367432,600,137.0,1000,6.599999904632568,-152,4,15,11100,23,3,800,1,2,4,5,6,11.109999656677246,0,128.0,100,4.400000095367432,5,1108,9.899999618530273,10,1.100000023841858,1110,0,12,-10,8.800000190734863,54,2.200000047683716,54,0,24,400,5.5,700,3.299999952316284,-54,12.119999885559082,1234,0,1700,111
1,123,-1670,12,7,9,1500,300,1,400,8,1.100000023841858,3.299999952316284,3,-167,1.100000023841858,-12,0,7.699999809265137,-167,600,4.400000095367432,0,2,1110,2.200000047683716,12,-5,321,5,700,1,3.299999952316284,666,2.200000047683716,333,10.100000381469727,4.400000095367432,600,137.0,1000,6.599999904632568,-150,4,15,11120,23,3,800,1,2,4,5,6,11.109999656677246,0,128.0,100,4.400000095367432,5,1110,9.899999618530273,12,1.100000023841858,1112,0,12,-12,8.800000190734863,55,2.200000047683716,55,0,24,400,5.5,700,3.299999952316284,-99,12.119999885559082,1234,0,1700,111
1,123,-1660,12,7,9,1500,300,1,400,8,1.100000023841858,3.299999952316284,3,-166,1.100000023841858,-14,0,7.699999809265137,-166,600,4.400000095367432,0,2,1112,2.200000047683716,14,-5,321,5,700,1,3.299999952316284,666,2.200000047683716,333,10.100000381469727,4.400000095367432,600,137.0,1000,6.599999904632568,-148,4,15,11140,23,3,800,1,2,4,5,6,11.109999656677246,0,128.0,100,4.400000095367432,5,1112,9.899999618530273,14,1.100000023841858,1114,0,12,-14,8.800000190734863,56,2.200000047683716,56,0,24,400,5.5,700,3.299999952316284,-99,12.119999885559082,1234,0,1700,111
1,123,-1650,12,7,9,1500,300,1,400,8,1.100000023841858,3.299999952316284,3,-165,1.100000023841858,-16,0,7.699999809265137,-165,600,4.400000095367432,0,2,1114,2.200000047683716,16,-5,321,5,700,1,3.299999952316284,666,2.200000047683716,333,10.100000381469727,4.400000095367432,600,137.0,1000,6.599999904632568,-146,4,15,11160,23,3,800,1,2,4,5,6,11.109999656677246,0,128.0,100,4.400000095367432,5,1114,9.899999618530273,16,1.100000023841858,1116,0,12,-16,8.800000190734863,57,2.200000047683716,57,0,24,400,5.5,700,3.299999952316284,-99,12.119999885559082,1234,0,1700,111
1,123,-1640,12,7,9,1500,300,1,400,8,1.100000023841858,3.299999952316284,3,-164,1.100000023841858,-18,0,7.699999809265137,-164,600,4.400000095367432,0,2,1116,2.200000047683716,18,-5,321,5,700,1,3.299999952316284,666,2.200000047683716,333,10.100000381469727,4.400000095367432,600,137.0,1000,6.599999904632568,-144,4,15,11180,23,3,800,1,2,4,5,6,11.109999656677246,0,128.0,100,4.400000095367432,5,1116,9.899999618530273,18,1.100000023841858,1118,0,12,-18,8.800000190734863,58,2.200000047683716,58,0,24,400,5.5,700,3.299999952316284,-99,12.119999885559082,1234,0,1700,111
1,123,-1630,12,7,9,1500,300,1,400,8,1.100000023841858,3.299999952316284,3,-163,1.100000023841858,-20,0,7.699999809265137,-163,600,4.400000095367432,0,2,1118,2.200000047683716,20,-5,321,5,700,1,3.299999952316284,666,2.200000047683716,333,10.100000381469727,4.400000095367432,600,137.0,1000,6.599999904632568,-142,4,15,11200,23,3,800,1,2,4,5,6,11.109999656677246,0,128.0,100,4.400000095367432,5,1118,9.899999618530273,20,1.100000023841858,1120,0,12,-20,8.800000190734863,59,2.200000047683716,59,0,24,400,5.5,700,3.299999952316284,-99,12.119999885559082,1234,0,1700,111
1,123,-1620,12,7,9,1500,300,1,400,8,1.100000023841858,3.299999952316284,3,-162,1.100000023841858,-22,0,7.699999809265137,-162,600,4.400000095367432,0,2,1120,2.200000047683716,22,-5,321,5,700,1,3.299999952316284,666,2.200000047683716,333,10.100000381469727,4.400000095367432,600,137.0,1000,6.599999904632568,-140,4,15,11220,23,3,800,1,2,4,5,6,11.109999656677246,0,128.0,100,4.400000095367432,5,1120,9.899999618530273,22,1.100000023841858,1122,0,12,-22,8.800000190734863,60,2.200000047683716,60,0,24,400,5.5,700,3.299999952316284,-53,12.119999885559082,1234,0,1700,111
1,123,-1610,12,7,9,1500,300,1,400,8,1.100000023841858,3.299999952316284,3,-161,1.100000023841858,-24,0,7.699999809265137,-161,600,4.400000095367432,0,2,1122,2.200000047683716,24,-5,321,5,700,1,3.299999952316284,666,2.200000047683716,333,10.100000381469727,4.400000095367432,600,137.0,1000,6.599999904632568,-138,4,15,11240,23,3,800,1,2,4,5,6,11.109999656677246,0,128.0,100,4.400000095367432,5,1122,9.899999618530273,24,1.100000023841858,1124,0,12,-24,8.800000190734863,61,2.200000047683716,61,0,24,400,5.5,700,3.299999952316284,-53,12.119999885559082,1234,0,1700,111
1,123,-1600,12,7,9,1500,300,1,400,8,1.100000023841858,3.299999952316284,3,-160,1.100000023841858,-26,0,7.699999809265137,-160,600,4.400000095367432,0,2,1124,2.200000047683716,26,-5,321,5,700,1,3.299999952316284,666,2.200000047683716,333,10.100000381469727,4.400000095367432,600,137.0,1000,6.599999904632568,-136,4,15,11260,23,3,800,1,2,4,5,6,11.109999656677246,0,128.0,100,4.400000095367432,5,1124,9.899999618530273,26,1.100000023841858,1126,0,12,-26,8.800000190734863,62,2.200000047683716,62,0,24,400,5.5,700,3.299999952316284,-53,12.119999885559082,1234,0,1700,111
1,123,-1590,12,7,9,1500,300,1,400,8,1.100000023841858,3.299999952316284,3,-159,1.100000023841858,-28,0,7.699999809265137,-159,600,4.400000095367432,0,2,1126,2.200000047683716,28,-5,321,5,700,1,3.299999952316284,666,2.200000047683716,333,10.100000381469727,4.400000095367432,600,137.0,1000,6.599999904632568,-134,4,15,11280,23,3,800,1,2,4,5,6,11.109999656677246,0,128.0,100,4.400000095367432,5,1126,9.899999618530273,28,1.100000023841858,1128,0,12,-28,8.800000190734863,63,2.200000047683716,63,0,24,400,5.5,700,3.299999952316284,-53,12.119999885559082,1234,0,1700,111
1,123,-1580,12,7,9,1500,300,1,400,8,1.100000023841858,3.299999952316284,3,-158,1.100000023841858,-30,0,7.699999809265137,-158,600,4.400000095367432,0,2,1128,2.200000047683716,30,-5,321,5,700,1,3.299999952316284,666,2.200000047683716,333,10.100000381469727,4.400000095367432,600,137.0,1000,6.599999904632568,-132,4,15,11300,23,3,800,1,2,4,5,6,11.109999656677246,0,128.0,100,4.400000095367432,5,1128,9.899999618530273,30,1.100000023841858,1130,0,12,-30,8.800000190734863,64,2.200000047683716,64,0,24,400,5.5,700,3.299999952316284,-53,12.119999885559082,1234,0,1700,111
1,123,-1570,12,7,9,1500,300,1,400,8,1.100000023841858,3.299999952316284,3,-157,1.100000023841858,-32,0,7.699999809265137,-157,600,4.400000095367432,0,2,1130,2.200000047683716,32,-5,321,5,700,1,3.299999952316284,666,2.200000047683716,333,10.100000381469727,4.400000095367432,600,137.0,1000,6.599999904632568,-130,4,15,11320,23,3,800,1,2,4,5,6,11.109999656677246,0,128.0,100,4.400000095367432,5,1130,9.899999618530273,32,1.100000023841858,1132,0,12,-32,8.800000190734863,65,2.200000047683716,65,0,24,400,5.5,700,3.299999952316284,42,12.119999885559082,1234,0,1700,111
1,123,-1560,12,7,9,1500,300,1,400,8,1.100000023841858,3.299999952316284,3,-156,1.100000023841858,-34,0,7.699999809265137,-156,600,4.400000095367432,0,2,1132,2.200000047683716,34,-5,321,5,700,1,3.299999952316284,666,2.200000047683716,333,10.100000381469727,4.400000095367432,600,137.0,1000,6.599999904632568,-128,4,15,11340,23,3,800,1,2,4,5,6,11.109999656677246,0,128.0,100,4.400000095367432,5,1132,9.899999618530273,34,1.100000023841858,1134,0,12,-34,8.800000190734863,66,2.200000047683716,66,0,24,400,5.5,700,3.299999952316284,42,12.119999885559082,1234,0,1700,111
1,123,-1550,12,7,9,1500,300,1,400,8,1.100000023841858,3.299999952316284,3,-155,1.100000023841858,-36,0,7.699999809265137,-155,600,4.400000095367432,0,2,1134,2.200000047683716,36,-5,321,5,700,1,3.299999952316284,666,2.200000047683716,333,10.100000381469727,4.400000095367432,600,137.0,1000,6.599999904632568,-126,4,15,11360,23,3,800,1,2,4,5,6,11.109999656677246,0,128.0,100,4.400000095367432,5,1134,9.899999618530273,36,1.100000023841858,1136,0,12,-36,8.800000190734863,67,2.200000047683716,67,0,24,400,5.5,700,3.299999952316284,42,12.119999885559082,1234,0,1700,111
1,123,-1540,12,7,9,1500,300,1,400,8,1.100000023841858,3.299999952316284,3,-154,1.100000023841858,-38,0,7.699999809265137,-154,600,4.400000095367432,0,2,1136,2.200000047683716,38,-5,321,5,700,1,3.299999952316284,666,2.200000047683716,333,10.100000381469727,4.400000095367432,600,137.0,1000,6.599999904632568,-124,4,15,11380,23,3,800,1,2,4,5,6,11.109999656677246,0,128.0,100,4.400000095367432,5,1136,9.899999618530273,38,1.100000023841858,1138,0,12,-38,8.800000190734863,68,2.200000047683716,68,0,24,400,5.5,700,3.299999952316284,42,12.119999885559082,1234,0,1700,111
1,123,-1530,12,7,9,1500,300,1,400,8,1.100000023841858,3.299999952316284,3,-153,1.100000023841858,-40,0,7.699999809265137,-153,600,4.400000095367432,0,2,1138,2.200000047683716,40,-5,321,5,700,1,3.299999952316284,666,2.200000047683716,333,10.100000381469727,4.400000095367432,600,137.0,1000,6.599999904632568,-122,4,15,11400,23,3,800,1,2,4,5,6,11.109999656677246,0,128.0,100,4.400000095367432,5,1138,9.899999618530273,40,1.100000023841858,1140,0,12,-40,8.800000190734863,69,2.200000047683716,69,0,24,400,5.5,700,3.299999952316284,42,12.119999885559082,1234,0,1700,111
1,123,-1520,12,7,9,1500,300,1,400,8,1.100000023841858,3.299999952316284,3,-152,1.100000023841858,-42,0,7.699999809265137,-152,600,4.400000095367432,0,2,1140,2.200000047683716,42,-5,321,5,700,1,3.299999952316284,666,2.200000047683716,333,10.100000381469727,4.400000095367432,600,137.0,1000,6.599999904632568,-120,4,15,11420,23,3,800,1,2,4,5,6,11.109999656677246,0,128.0,100,4.400000095367432,5,1140,9.899999618530273,42,1.100000023841858,1142,0,12,-42,8.800000190734863,70,2.200000047683716,70,0,24,400,5.5,700,3.299999952316284,99,12.119999885559082,1234,0,1700,111
1,123,-1510,12,7,9,1500,300,1,400,8,1.100000023841858,3.299999952316284,3,-151,1.100000023841858,-44,0,7.699999809265137,-151,600,4.400000095367432,0,2,1142,2.200000047683716,44,-5,321,5,700,1,3.299999952316284,666,2.200000047683716,333,10.100000381469727,4.400000095367432,600,137.0,1000,6.599999904632568,-118,4,15,11440,23,3,800,1,2,4,5,6,11.109999656677246,0,128.0,100,4.400000095367432,5,1142,9.899999618530273,44,1.100000023841858,1144,0,12,-44,8.800000190734863,71,2.200000047683716,71,0,24,400,5.5,700,3.299999952316284,99,12.119999885559082,1234,0,1700,111
1,123,-1500,12,7,9,1500,300,1,400,8,1.100000023841858,3.299999952316284,3,-150,1.100000023841858,-46,0,7.699999809265137,-150,600,4.400000095367432,0,2,1144,2.200000047683716,46,-5,321,5,700,1,3.299999952316284,666,2.200000047683716,333,10.100000381469727,4.400000095367432,600,137.0,1000,6.599999904632568,-116,4,15,11460,23,3,800,1,2,4,5,6,11.109999656677246,0,128.0,100,4.400000095367432,5,1144,9.899999618530273,46,1.100000023841858,1146,0,12,-46,8.800000190734863,72,2.200000047683716,72,0,24,400,5.5,700,3.299999952316284,99,12.119999885559082,1234,0,1700,111
1,123,-1490,12,7,9,1500,300,1,400,8,1.100000023841858,3.299999952316284,3,-149,1.100000023841858,-48,0,7.699999809265137,-149,600,4.400000095367432,0,2,1146,2.200000047683716,48,-5,321,5,700,1,3.299999952316284,666,2.200000047683716,333,10.100000381469727,4.400000095367432,600,137.0,1000,6.599999904632568,-114,4,15,11480,23,3,800,1,2,4,5,6,11.109999656677246,0,128.0,100,4.400000095367432,5,1146,9.899999618530273,48,1.100000023841858,1148,0,12,-48,8.800000190734863,73,2.200000047683716,73,0,24,400,5.5,700,3.299999952316284,99,12.119999885559082,1234,0,1700,111
1,123,-1480,12,7,9,1500,300,1,400,8,1.100000023841858,3.299999952316284,3,-148,1.100000023841858,-50,0,7.699999809265137,-148,600,4.400000095367432,0,2,1148,2.200000047683716,50,-5,321,5,700,1,3.299999952316284,666,2.200000047683716,333,10.100000381469727,4.400000095367432,600,137.0,1000,6.599999904632568,-112,4,15,11500,23,3,800,1,2,4,5,6,11.109999656677246,0,128.0,100,4.400000095367432,5,1148,9.899999618530273,50,1.100000023841858,1150,0,12,-50,8.800000190734863,74,2.200000047683716,74,0,24,400,5.5,700,3.299999952316284,99,12.119999885559082,1234,0,1700,111
1,123,-1470,12,7,9,1500,300,1,400,8,1.100000023841858,3.299999952316284,3,-147,1.100000023841858,-52,0,7.699999809265137,-147,600,4.400000095367432,0,2,1150,2.200000047683716,52,-5,321,5,700,1,3.299999952316284,666,2.200000047683716,333,10.100000381469727,4.400000095367432,600,137.0,1000,6.599999904632568,-110,4,15,11520,23,3,800,1,2,4,5,6,11.109999656677246,0,128.0,100,4.400000095367432,5,1150,9.899999618530273,52,1.100000023841858,1152,0,12,-52,8.800000190734863,75,2.200000047683716,75,0,24,400,5.5,700,3.299999952316284,65,12.119999885559082,1234,0,1700,111
1,123,-1460,12,7,9,1500,300,1,400,8,1.100000023841858,3.299999952316284,3,-146,1.100000023841858,-54,0,7.699999809265137,-146,600,4.400000095367432,0,2,1152,2.200000047683716,54,-5,321,5,700,1,3.299999952316284,666,2.200000047683716,333,10.100000381469727,4.400000095367432,600,137.0,1000,6.599999904632568,-108,4,15,11540,23,3,800,1,2,4,5,6,11.109999656677246,0,128.0,100,4.400000095367432,5,1152,9.899999618530273,54,1.100000023841858,1154,0,12,-54,8.800000190734863,76,2.200000047683716,76,0,24,400,5.5,700,3.299999952316284,65,12.119999885559082,1234,0,1700,111
1,123,-1450,12,7,9,1500,300,1,400,8,1.100000023841858,3.299999952316284,3,-145,1.100000023841858,-56,0,7.699999809265137,-145,600,4.400000095367432,0,2,1154,2.200000047683716,56,-5,321,5,700,1,3.299999952316284,666,2.200000047683716,333,10.100000381469727,4.400000095367432,600,137.0,1000,6.599999904632568,-106,4,15,11560,23,3,800,1,2,4,5,6,11.109999656677246,0,128.0,100,4.400000095367432,5,1154,9.899999618530273,56,1.100000023841858,1156,0,12,-56,8.800000190734863,77,2.200000047683716,77,0,24,400,5.5,700,3.299999952316284,65,12.119999885559082,1234,0,1700,111
1,123,-1440,12,7,9,1500,300,1,400,8,1.100000023841858,3.299999952316284,3,-144,1.100000023841858,-58,0,7.699999809265137,-144,600,4.400000095367432,0,2,1156,2.200000047683716,58,-5,321,5,700,1,3.299999952316284,666,2.200000047683716,333,10.100000381469727,4.400000095367432,600,137.0,1000,6.599999904632568,-104,4,15,11580,23,3,800,1,2,4,5,6,11.109999656677246,0,128.0,100,4.400000095367432,5,1156,9.899999618530273,58,1.100000023841858,1158,0,12,-58,8.800000190734863,78,2.200000047683716,78,0,24,400,5.5,700,3.299999952316284,65,12.119999885559082,1234,0,1700,111
1,123,-1430,12,7,9,1500,300,1,400,8,1.100000023841858,3.299999952316284,3,-143,1.100000023841858,-60,0,7.699999809265137,-143,600,4.400000095367432,0,2,1158,2.200000047683716,60,-5,321,5,700,1,3.299999952316284,666,2.200000047683716,333,10.100000381469727,4.400000095367432,600,137.0,1000,6.599999904632568,-102,4,15,11600,23,3,800,1,2,4,5,6,11.109999656677246,0,128.0,100,4.400000095367432,5,1158,9.899999618530273,60,1.100000023841858,1160,0,12,-60,8.800000190734863,79,2.200000047683716,79,0,24,400,5.5,700,3.299999952316284,65,12.119999885559082,1234,0,1700,111
1,123,-1420,12,7,9,1500,300,1,400,8,1.100000023841858,3.299999952316284,3,-142,1.100000023841858,-62,0,7.699999809265137,-142,600,4.400000095367432,0,2,1160,2.200000047683716,62,-5,321,5,700,1,3.299999952316284,666,2.200000047683716,333,10.100000381469727,4.400000095367432,600,137.0,1000,6.599999904632568,-100,4,15,11620,23,3,800,1,2,4,5,6,11.109999656677246,0,128.0,100,4.400000095367432,5,1160,9.899999618530273,62,1.100000023841858,1162,0,12,-62,8.800000190734863,80,2.200000047683716,80,0,24,400,5.5,700,3.299999952316284,-28,12.119999885559082,1234,0,1700,111
1,123,-1410,12,7,9,1500,300,1,400,8,1.100000023841858,3.299999952316284,3,-141,1.100000023841858,-64,0,7.699999809265137,-141,600,4.400000095367432,0,2,1162,2.200000047683716,64,-5,321,5,700,1,3.299999952316284,666,2.200000047683716,333,10.100000381469727,4.400000095367432,600,137.0,1000,6.599999904632568,-98,4,15,11640,23,3,800,1,2,4,5,6,11.109999656677246,0,128.0,100,4.400000095367432,5,1162,9.899999618530273,64,1.100000023841858,1164,0,12,-64,8.800000190734863,81,2.200000047683716,81,0,24,400,5.5,700,3.299999952316284,-28,12.119999885559082,1234,0,1700,111
1,123,-1400,12,7,9,1500,300,1,400,8,1.100000023841858,3.299999952316284,3,-140,1.100000023841858,-66,0,7.699999809265137,-140,600,4.400000095367432,0,2,1164,2.200000047683716,66,-5,321,5,700,1,3.299999952316284,666,2.200000047683716,333,10.100000381469727,4.400000095367432,600,137.0,1000,6.599999904632568,-96,4,15,11660,23,3,800,1,2,4,5,6,11.109999656677246,0,128.0,100,4.400000095367432,5,1164,9.899999618530273,66,1.100000023841858,1166,0,12,-66,8.800000190734863,82,2.200000047683716,82,0,24,400,5.5,700,3.299999952316284,-28,12.119999885559082,1234,0,1700,111
1,123,-1390,12,7,9,1500,300,1,400,8,1.100000023841858,3.299999952316284,3,-139,1.100000023841858,-68,0,7.699999809265137,-139,600,4.400000095367432,0,2,1166,2.200000047683716,68,-5,321,5,700,1,3.299999952316284,666,2.200000047683716,333,10.100000381469727,4.400000095367432,600,137.0,1000,6.599999904632568,-94,4,15,11680,23,3,800,1,2,4,5,6,11.109999656677246,0,128.0,100,4.400000095367432,5,1166,9.899999618530273,68,1.100000023841858,1168,0,12,-68,8.800000190734863,83,2.200000047683716,83,0,24,400,5.5,700,3.299999952316284,-28,12.119999885559082,1234,0,1700,111
1,123,-1380,12,7,9,1500,300,1,400,8,1.100000023841858,3.299999952316284,3,-138,1.100000023841858,-70,0,7.699999809265137,-138,600,4.400000095367432,0,2,1168,2.200000047683716,70,-5,321,5,700,1,3.299999952316284,666,2.200000047683716,333,10.100000381469727,4.400000095367432,600,137.0,1000,6.599999904632568,-92,4,15,11700,23,3,800,1,2,4,5,6,11.109999656677246,0,128.0,100,4.400000095367432,5,1168,9.899999618530273,70,1.100000023841858,1170,0,12,-70,8.800000190734863,84,2.200000047683716,84,0,24,400,5.5,700,3.299999952316284,-28,12.119999885559082,1234,0,1700,111
1,123,-1370,12,7,9,1500,300,1,400,8,1.100000023841858,3.299999952316284,3,-137,1.100000023841858,-72,0,7.699999809265137,-137,600,4.400000095367432,0,2,1170,2.200000047683716,72,-5,321,5,700,1,3.299999952316284,666,2.200000047683716,333,10.100000381469727,4.400000095367432,600,137.0,1000,6.599999904632568,-90,4,15,11720,23,3,800,1,2,4,5,6,11.109999656677246,0,128.0,100,4.400000095367432,5,1170,9.899999618530273,72,1.100000023841858,1172,0,12,-72,8.800000190734863,85,2.200000047683716,85,0,24,400,5.5,700,3.299999952316284,-96,12.119999885559082,1234,0,1700,111
1,123,-1360,12,7,9,1500,300,1,400,8,1.100000023841858,3.299999952316284,3,-136,1.100000023841858,-74,0,7.699999809265137,-136,600,4.400000095367432,0,2,1172,2.200000047683716,74,-5,321,5,700,1,3.299999952316284,666,2.200000047683716,333,10.100000381469727,4.400000095367432,600,137.0,1000,6.599999904632568,-88,4,15,11740,23,3,800,1,2,4,5,6,11.109999656677246,0,128.0,100,4.400000095367432,5,1172,9.899999618530273,74,1.100000023841858,1174,0,12,-74,8.800000190734863,86,2.200000047683716,86,0,24,400,5.5,700,3.299999952316284,-96,12.119999885559082,1234,0,1700,111
1,123,-1350,12,7,9,1500,300,1,400,8,1.100000023841858,3.299999952316284,3,-135,1.100000023841858,-76,0,7.699999809265137,-135,600,4.400000095367432,0,2,1174,2.200000047683716,76,-5,321,5,700,1,3.299999952316284,666,2.200000047683716,333,10.100000381469727,4.400000095367432,600,137.0,1000,6.599999904632568,-86,4,15,11760,23,3,800,1,2,4,5,6,11.109999656677246,0,128.0,100,4.400000095367432,5,1174,9.899999618530273,76,1.100000023841858,1176,0,12,-76,8.800000190734863,87,2.200000047683716,87,0,24,400,5.5,700,3.299999952316284,-96,12.119999885559082,1234,0,1700,111
1,123,-1340,12,7,9,1500,300,1,400,8,1.100000023841858,3.299999952316284,3,-134,1.100000023841858,-78,0,7.699999809265137,-134,600,4.400000095367432,0,2,1176,2.200000047683716,78,-5,321,5,700,1,3.299999952316284,666,2.200000047683716,333,10.100000381469727,4.400000095367432,600,137.0,1000,6.599999904632568,-84,4,15,11780,23,3,800,1,2,4,5,6,11.109999656677246,0,128.0,100,4.400000095367432,5,1176,9.899999618530273,78,1.100000023841858,1178,0,12,-78,8.800000190734863,88,2.200000047683716,88,0,24,400,5.5,700,3.299999952316284,-96,12.119999885559082,1234,0,1700,111
1,123,-1330,12,7,9,1500,300,1,400,8,1.100000023841858,3.299999952316284,3,-133,1.100000023841858,-80,0,7.699999809265137,-133,600,4.400000095367432,0,2,1178,2.200000047683716,80,-5,321,5,700,1,3.299999952316284,666,2.200000047683716,333,10.100000381469727,4.400000095367432,600,137.0,1000,6.599999904632568,-82,4,15,11800,23,3,800,1,2,4,5,6,11.109999656677246,0,128.0,100,4.400000095367432,5,1178,9.899999618530273,80,1.100000023841858,1180,0,12,-80,8.800000190734863,89,2.200000047683716,89,0,24,400,5.5,700,3.299999952316284,-96,12.119999885559082,1234,0,1700,111
1,123,-1320,12,7,9,1500,300,1,400,8,1.100000023841858,3.299999952316284,3,-132,1.100000023841858,-82,0,7.699999809265137,-132,600,4.400000095367432,0,2,1180,2.200000047683716,82,-5,321,5,700,1,3.299999952316284,666,2.200000047683716,333,10.100000381469727,4.400000095367432,600,137.0,1000,6.599999904632568,-80,4,15,11820,23,3,800,1,2,4,5,6,11.109999656677246,0,128.0,100,4.400000095367432,5,1180,9.899999618530273,82,1.100000023841858,1182,0,12,-82,8.800000190734863,90,2.200000047683716,90,0,24,400,5.5,700,3.299999952316284,-75,12.119999885559082,1234,0,1700,111
1,123,-1310,12,7,9,1500,300,1,400,8,1.100000023841858,3.299999952316284,3,-131,1.100000023841858,-84,0,7.699999809265137,-131,600,4.400000095367432,0,2,1182,2.200000047683716,84,-5,321,5,700,1,3.299999952316284,666,2.200000047683716,333,10.100000381469727,4.400000095367432,600,137.0,1000,6.599999904632568,-78,4,15,11840,23,3,800,1,2,4,5,6,11.109999656677246,0,128.0,100,4.400000095367432,5,1182,9.899999618530273,84,1.100000023841858,1184,0,12,-84,8.800000190734863,91,2.200000047683716,91,0,24,400,5.5,700,3.299999952316284,-75,12.119999885559082,1234,0,1700,111
1,123,-1300,12,7,9,1500,300,1,400,8,1.100000023841858,3.299999952316284,3,-130,1.100000023841858,-86,0,7.699999809265137,-130,600,4.400000095367432,0,2,1184,2.200000047683716,86,-5,321,5,700,1,3.299999952316284,666,2.200000047683716,333,10.100000381469727,4.400000095367432,600,137.0,1000,6.599999904632568,-76,4,15,11860,23,3,800,1,2,4,5,6,11.109999656677246,0,128.0,100,4.400000095367432,5,1184,9.899999618530273,86,1.100000023841858,1186,0,12,-86,8.800000190734863,92,2.200000047683716,92,0,24,400,5.5,700,3.299999952316284,-75,12.119999885559082,1234,0,1700,111
1,123,-1290,12,7,9,1500,300,1,400,8,1.100000023841858,3.299999952316284,3,-129,1.100000023841858,-88,0,7.699999809265137,-129,600,4.400000095367432,0,2,1186,2.200000047683716,88,-5,321,5,700,1,3.299999952316284,666,2.200000047683716,333,10.100000381469727,4.400000095367432,600,137.0,1000,6.599999904632568,-74,4,15,11880,23,3,800,1,2,4,5,6,11.109999656677246,0,128.0,100,4.400000095367432,5,1186,9.899999618530273,88,1.100000023841858,1188,0,12,-88,8.800000190734863,93,2.200000047683716,93,0,24,400,5.5,700,3.299999952316284,-75,12.119999885559082,1234,0,1700,111
1,123,-1280,12,7,9,1500,300,1,400,8,1.100000023841858,3.299999952316284,3,-128,1.100000023841858,-90,0,7.699999809265137,-128,600,4.400000095367432,0,2,1188,2.200000047683716,90,-5,321,5,700,1,3.299999952316284,666,2.200000047683716,333,10.100000381469727,4.400000095367432,600,137.0,1000,6.599999904632568,-72,4,15,11900,23,3,800,1,2,4,5,6,11.109999656677246,0,128.0,100,4.400000095367432,5,1188,9.899999618530273,90,1.100000023841858,1190,0,12,-90,8.800000190734863,94,2.200000047683716,94,0,24,400,5.5,700,3.299999952316284,-75,12.119999885559082,1234,0,1700,111
1,123,-1270,12,7,9,1500,300,1,400,8,1.100000023841858,3.299999952316284,3,-127,1.100000023841858,-92,0,7.699999809265137,-127,600,4.400000095367432,0,2,1190,2.200000047683716,92,-5,321,5,700,1,3.299999952316284,666,2.200000047683716,333,10.100000381469727,4.400000095367432,600,137.0,1000,6.599999904632568,-70,4,15,11920,23,3,800,1,2,4,5,6,11.109999656677246,0,128.0,100,4.400000095367432,5,1190,9.899999618530273,92,1.100000023841858,1192,0,12,-92,8.800000190734863,95,2.200000047683716,95,0,24,400,5.5,700,3.299999952316284,14,12.119999885559082,1234,0,1700,111
1,123,-1260,12,7,9,1500,300,1,400,8,1.100000023841858,3.299999952316284,3,-126,1.100000023841858,-94,0,7.699999809265137,-126,600,4.400000095367432,0,2,1192,2.200000047683716,94,-5,321,5,700,1,3.299999952316284,666,2.200000047683716,333,10.100000381469727,4.400000095367432,600,137.0,1000,6.599999904632568,-68,4,15,11940,23,3,800,1,2,4,5,6,11.109999656677246,0,128.0,100,4.400000095367432,5,1192,9.899999618530273,94,1.100000023841858,1194,0,12,-94,8.800000190734863,96,2.200000047683716,96,0,24,400,5.5,700,3.299999952316284,14,12.119999885559082,1234,0,1700,111
1,123,-1250,12,7,9,1500,300,1,400,8,1.100000023841858,3.299999952316284,3,-125,1.100000023841858,-96,0,7.699999809265137,-125,600,4.400000095367432,0,2,1194,2.200000047683716,96,-5,321,5,700,1,3.299999952316284,666,2.200000047683716,333,10.100000381469727,4.400000095367432,600,137.0,1000,6.599999904632568,-66,4,15,11960,23,3,800,1,2,4,5,6,11.109999656677246,0,128.0,100,4.400000095367432,5,1194,9.899999618530273,96,1.100000023841858,1196,0,12,-96,8.800000190734863,97,2.200000047683716,97,0,24,400,5.5,700,3.299999952316284,14,12.119999885559082,1234,0,1700,111
1,123,-1240,12,7,9,1500,300,1,400,8,1.100000023841858,3.299999952316284,3,-124,1.100000023841858,-98,0,7.699999809265137,-124,600,4.400000095367432,0,2,1196,2.200000047683716,98,-5,321,5,700,1,3.299999952316284,666,2.200000047683716,333,10.100000381469727,4.400000095367432,600,137.0,1000,6.599999904632568,-64,4,15,11980,23,3,800,1,2,4,5,6,11.109999656677246,0,128.0,100,4.400000095367432,5,1196,9.899999618530273,98,1.100000023841858,1198,0,12,-98,8.800000190734863,98,2.200000047683716,98,0,24,400,5.5,700,3.299999952316284,14,12.119999885559082,1234,0,1700,111
1,123,-1230,12,7,9,1500,300,1,400,8,1.100000023841858,3.299999952316284,3,-123,1.100000023841858,-100,0,7.699999809265137,-123,600,4.400000095367432,0,2,1198,2.200000047683716,100,-5,321,5,700,1,3.299999952316284,666,2.200000047683716,333,10.100000381469727,4.400000095367432,600,137.0,1000,6.599999904632568,-62,4,15,12000,23,3,800,1,2,4,5,6,11.109999656677246,0,128.0,100,4.400000095367432,5,1198,9.899999618530273,100,1.100000023841858,1200,0,12,-100,8.800000190734863,99,2.200000047683716,99,0,24,400,5.5,700,3.299999952316284,14,12.119999885559082,1234,0,1700,111
1,123,-1220,12,7,9,1500,300,1,400,8,1.100000023841858,3.299999952316284,3,-122,1.100000023841858,98,0,7.699999809265137,-122,600,4.400000095367432,0,2,1200,2.200000047683716,-98,-5,321,5,700,1,3.299999952316284,666,2.200000047683716,333,10.100000381469727,4.400000095367432,600,137.0,1000,6.599999904632568,-60,4,15,12020,23,3,800,1,2,4,5,6,11.109999656677246,0,128.0,100,4.400000095367432,5,1200,9.899999618530273,-98,1.100000023841858,1202,0,12,98,8.800000190734863,100,2.200000047683716,100,0,24,400,5.5,700,3.299999952316284,91,12.119999885559082,1234,0,1700,111
1,123,-1210,12,7,9,1500,300,1,400,8,1.100000023841858,3.299999952316284,3,-121,1.100000023841858,96,0,7.699999809265137,-121,600,4.400000095367432,0,2,1202,2.200000047683716,-96,-5,321,5,700,1,3.299999952316284,666,2.200000047683716,333,10.100000381469727,4.400000095367432,600,137.0,1000,6.599999904632568,-58,4,15,12040,23,3,800,1,2,4,5,6,11.109999656677246,0,128.0,100,4.400000095367432,5,1202,9.899999618530273,-96,1.100000023841858,1204,0,12,96,8.800000190734863,1,2.200000047683716,1,0,24,400,5.5,700,3.299999952316284,84,12.119999885559082,1234,0,1700,111
1,123,-1200,12,7,9,1500,300,1,400,8,1.100000023841858,3.299999952316284,3,-120,1.100000023841858,94,0,7.699999809265137,-120,600,4.400000095367432,0,2,1204,2.200000047683716,-94,-5,321,5,700,1,3.299999952316284,666,2.200000047683716,333,10.100000381469727,4.400000095367432,600,137.0,1000,6.599999904632568,-56,4,15,12060,23,3,800,1,2,4,5,6,11.109999656677246,0,128.0,100,4.400000095367432,5,1204,9.899999618530273,-94,1.100000023841858,1206,0,12,94,8.800000190734863,2,2.200000047683716,2,0,24,400,5.5,700,3.299999952316284,84,12.119999885559082,1234,0,1700,111
1,123,-1190,12,7,9,1500,300,1,400,8,1.100000023841858,3.299999952316284,3,-119,1.100000023841858,92,0,7.699999809265137,-119,600,4.400000095367432,0,2,1206,2.200000047683716,-92,-5,321,5,700,1,3.299999952316284,666,2.200000047683716,333,10.100000381469727,4.400000095367432,600,137.0,1000,6.599999904632568,-54,4,15,12080,23,3,800,1,2,4,5,6,11.109999656677246,0,128.0,100,4.400000095367432,5,1206,9.899999618530273,-92,1.100000023841858,1208,0,12,92,8.800000190734863,3,2.200000047683716,3,0,24,400,5.5,700,3.299999952316284,84,12.119999885559082,1234,0,1700,111
1,123,-1180,12,7,9,1500,300,1,400,8,1.100000023841858,3.299999952316284,3,-118,1.100000023841858,90,0,7.699999809265137,-118,600,4.400000095367432,0,2,1208,2.200000047683716,-90,-5,321,5,700,1,3.299999952316284,666,2.200000047683716,333,10.100000381469727,4.400000095367432,600,137.0,1000,6.599999904632568,-52,4,15,12100,23,3,800,1,2,4,5,6,11.109999656677246,0,128.0,100,4.400000095367432,5,1208,9.899999618530273,-90,1.100000023841858,1210,0,12,90,8.800000190734863,4,2.200000047683716,4,0,24,400,5.5,700,3.299999952316284,84,12.119999885559082,1234,0,1700,111
1,123,-1170,12,7,9,1500,300,1,400,8,1.100000023841858,3.299999952316284,3,-117,1.100000023841858,88,0,7.699999809265137,-117,600,4.400000095367432,0,2,1210,2.200000047683716,-88,-5,321,5,700,1,3.299999952316284,666,2.200000047683716,333,10.100000381469727,4.400000095367432,600,137.0,1000,6.599999904632568,-50,4,15,12120,23,3,800,1,2,4,5,6,11.109999656677246,0,128.0,100,4.400000095367432,5,1210,9.899999618530273,-88,1.100000023841858,1212,0,12,88,8.800000190734863,5,2.200000047683716,5,0,24,400,5.5,700,3.299999952316284,84,12.119999885559082,1234,0,1700,111
1,123,-1160,12,7,9,1500,300,1,400,8,1.100000023841858,3.299999952316284,3,-116,1.100000023841858,86,0,7.699999809265137,-116,600,4.400000095367432,0,2,1212,2.200000047683716,-86,-5,321,5,700,1,3.299999952316284,666,2.200000047683716,333,10.100000381469727,4.400000095367432,600,137.0,1000,6.599999904632568,-48,4,15,12140,23,3,800,1,2,4,5,6,11.109999656677246,0,128.0,100,4.400000095367432,5,1212,9.899999618530273,-86,1.100000023841858,1214,0,12,86,8.800000190734863,6,2.200000047683716,6,0,24,400,5.5,700,3.299999952316284,90,12.119999885559082,1234,0,1700,111
1,123,-1150,12,7,9,1500,300,1,400,8,1.100000023841858,3.299999952316284,3,-115,1.100000023841858,84,0,7.699999809265137,-115,600,4.400000095367432,0,2,1214,2.200000047683716,-84,-5,321,5,700,1,3.299999952316284,666,2.200000047683716,333,10.100000381469727,4.400000095367432,600,137.0,1000,6.599999904632568,-46,4,15,12160,23,3,800,1,2,4,5,6,11.109999656677246,0,128.0,100,4.400000095367432,5,1214,9.899999618530273,-84,1.100000023841858,1216,0,12,84,8.800000190734863,7,2.200000047683716,7,0,24,400,5.5,700,3.299999952316284,90,12.119999885559082,1234,0,1700,111
1,123,-1140,12,7,9,1500,300,1,400,8,1.100000023841858,3.299999952316284,3,-114,1.100000023841858,82,0,7.699999809265137,-114,600,4.400000095367432,0,2,1216,2.200000047683716,-82,-5,321,5,700,1,3.299999952316284,666,2.200000047683716,333,10.100000381469727,4.400000095367432,600,137.0,1000,6.599999904632568,-44,4,15,12180,23,3,800,1,2,4,5,6,11.109999656677246,0,128.0,100,4.400000095367432,5,1216,9.899999618530273,-82,1.100000023841858,1218,0,12,82,8.800000190734863,8,2.200000047683716,8,0,24,400,5.5,700,3.299999952316284,90,12.119999885559082,1234,0,1700,111
1,123,-1130,12,7,9,1500,300,1,400,8,1.100000023841858,3.299999952316284,3,-113,1.100000023841858,80,0,7.699999809265137,-113,600,4.400000095367432,0,2,1218,2.200000047683716,-80,-5,321,5,700,1,3.299999952316284,666,2.200000047683716,333,10.100000381469727,4.400000095367432,600,137.0,1000,6.599999904632568,-42,4,15,12200,23,3,800,1,2,4,5,6,11.109999656677246,0,128.0,100,4.400000095367432,5,1218,9.899999618530273,-80,1.100000023841858,1220,0,12,80,8.800000190734863,9,2.200000047683716,9,0,24,400,5.5,700,3.299999952316284,90,12.119999885559082,1234,0,1700,111
1,123,-1120,12,7,9,1500,300,1,400,8,1.100000023841858,3.299999952316284,3,-112,1.100000023841858,78,0,7.699999809265137,-112,600,4.400000095367432,0,2,1220,2.200000047683716,-78,-5,321,5,700,1,3.299999952316284,666,2.200000047683716,333,10.100000381469727,4.400000095367432,600,137.0,1000,6.599999904632568,-40,4,15,12220,23,3,800,1,2,4,5,6,11.109999656677246,0,128.0,100,4.400000095367432,5,1220,9.899999618530273,-78,1.100000023841858,1222,0,12,78,8.800000190734863,10,2.200000047683716,10,0,24,400,5.5,700,3.299999952316284,90,12.119999885559082,1234,0,1700,111
1,123,-1110,12,7,9,1500,300,1,400,8,1.100000023841858,3.299999952316284,3,-111,1.100000023841858,76,0,7.699999809265137,-111,600,4.400000095367432,0,2,1222,2.200000047683716,-76,-5,321,5,700,1,3.299999952316284,666,2.200000047683716,333,10.100000381469727,4.400000095367432,600,137.0,1000,6.599999904632568,-38,4,15,12240,23,3,800,1,2,4,5,6,11.109999656677246,0,128.0,100,4.400000095367432,5,1222,9.899999618530273,-76,1.100000023841858,1224,0,12,76,8.800000190734863,11,2.200000047683716,11,0,24,400,5.5,700,3.299999952316284,14,12.119999885559082,1234,0,1700,111
1,123,-1100,12,7,9,1500,300,1,400,8,1.100000023841858,3.299999952316284,3,-110,1.100000023841858,74,0,7.699999809265137,-110,600,4.400000095367432,0,2,1224,2.200000047683716,-74,-5,321,5,700,1,3.299999952316284,666,2.200000047683716,333,10.100000381469727,4.400000095367432,600,137.0,1000,6.599999904632568,-36,4,15,12260,23,3,800,1,2,4,5,6,11.109999656677246,0,128.0,100,4.400000095367432,5,1224,9.899999618530273,-74,1.100000023841858,1226,0,12,74,8.800000190734863,12,2.200000047683716,12,0,24,400,5.5,700,3.299999952316284,14,12.119999885559082,1234,0,1700,111
1,123,-1090,12,7,9,1500,300,1,400,8,1.100000023841858,3.299999952316284,3,-109,1.100000023841858,72,0,7.699999809265137,-109,600,4.400000095367432,0,2,1226,2.200000047683716,-72,-5,321,5,700,1,3.299999952316284,666,2.200000047683716,333,10.100000381469727,4.400000095367432,600,137.0,1000,6.599999904632568,-34,4,15,12280,23,3,800,1,2,4,5,6,11.109999656677246,0,128.0,100,4.400000095367432,5,1226,9.899999618530273,-72,1.100000023841858,1228,0,12,72,8.800000190734863,13,2.200000047683716,13,0,24,400,5.5,700,3.299999952316284,14,12.119999885559082,1234,0,1700,111
1,123,-1080,12,7,9,1500,300,1,400,8,1.100000023841858,3.299999952316284,3,-108,1.100000023841858,70,0,7.699999809265137,-108,600,4.400000095367432,0,2,1228,2.200000047683716,-70,-5,321,5,700,1,3.299999952316284,666,2.200000047683716,333,10.100000381469727,4.400000095367432,600,137.0,1000,6.599999904632568,-32,4,15,12300,23,3,800,1,2,4,5,6,11.109999656677246,0,128.0,100,4.400000095367432,5,1228,9.899999618530273,-70,1.100000023841858,1230,0,12,70,8.800000190734863,14,2.200000047683716,14,0,24,400,5.5,700,3.299999952316284,14,12.119999885559082,1234,0,1700,111
1,123,-1070,12,7,9,1500,300,1,400,8,1.100000023841858,3.299999952316284,3,-107,1.100000023841858,68,0,7.699999809265137,-107,600,4.400000095367432,0,2,1230,2.200000047683716,-68,-5,321,5,700,1,3.299999952316284,666,2.200000047683716,333,10.100000381469727,4.400000095367432,600,137.0,1000,6.599999904632568,-30,4,15,12320,23,3,800,1,2,4,5,6,11.109999656677246,0,128.0,100,4.400000095367432,5,1230,9.899999618530273,-68,1.100000023841858,1232,0,12,68,8.800000190734863,15,2.200000047683716,15,0,24,400,5.5,700,3.299999952316284,14,12.119999885559082,1234,0,1700,111
1,123,-1060,12,7,9,1500,300,1,400,8,1.100000023841858,3.299999952316284,3,-106,1.100000023841858,66,0,7.699999809265137,-106,600,4.400000095367432,0,2,1232,2.200000047683716,-66,-5,321,5,700,1,3.299999952316284,666,2.200000047683716,333,10.100000381469727,4.400000095367432,600,137.0,1000,6.599999904632568,-28,4,15,12340,23,3,800,1,2,4,5,6,11.109999656677246,0,128.0,100,4.400000095367432,5,1232,9.899999618530273,-66,1.100000023841858,1234,0,12,66,8.800000190734863,16,2.200000047683716,16,0,24,400,5.5,700,3.299999952316284,-75,12.119999885559082,1234,0,1700,111
1,123,-1050,12,7,9,1500,300,1,400,8,1.100000023841858,3.299999952316284,3,-105,1.100000023841858,64,0,7.699999809265137,-105,600,4.400000095367432,0,2,1234,2.200000047683716,-64,-5,321,5,700,1,3.299999952316284,666,2.200000047683716,333,10.100000381469727,4.400000095367432,600,137.0,1000,6.599999904632568,-26,4,15,12360,23,3,800,1,2,4,5,6,11.109999656677246,0,128.0,100,4.400000095367432,5,1234,9.899999618530273,-64,1.100000023841858,1236,0,12,64,8.800000190734863,17,2.200000047683716,17,0,24,400,5.5,700,3.299999952316284,-75,12.119999885559082,1234,0,1700,111
1,123,-1040,12,7,9,1500,300,1,400,8,1.100000023841858,3.299999952316284,3,-104,1.100000023841858,62,0,7.699999809265137,-104,600,4.400000095367432,0,2,1236,2.200000047683716,-62,-5,321,5,700,1,3.299999952316284,666,2.200000047683716,333,10.100000381469727,4.400000095367432,600,137.0,1000,6.599999904632568,-24,4,15,12380,23,3,800,1,2,4,5,6,11.109999656677246,0,128.0,100,4.400000095367432,5,1236,9.899999618530273,-62,1.100000023841858,1238,0,12,62,8.800000190734863,18,2.200000047683716,18,0,24,400,5.5,700,3.299999952316284,-75,12.119999885559082,1234,0,1700,111
1,123,-1030,12,7,9,1500,300,1,400,8,1.100000023841858,3.299999952316284,3,-103,1.100000023841858,60,0,7.699999809265137,-103,600,4.400000095367432,0,2,1238,2.200000047683716,-60,-5,321,5,700,1,3.299999952316284,666,2.200000047683716,333,10.100000381469727,4.400000095367432,600,137.0,1000,6.599999904632568,-22,4,15,12400,23,3,800,1,2,4,5,6,11.109999656677246,0,128.0,100,4.400000095367432,5,1238,9.899999618530273,-60,1.100000023841858,1240,0,12,60,8.800000190734863,19,2.200000047683716,19,0,24,400,5.5,700,3.299999952316284,-75,12.119999885559082,1234,0,1700,111
1,123,-1020,12,7,9,1500,300,1,400,8,1.100000023841858,3.299999952316284,3,-102,1.100000023841858,58,0,7.699999809265137,-102,600,4.400000095367432,0,2,1240,2.200000047683716,-58,-5,321,5,700,1,3.299999952316284,666,2.200000047683716,333,10.100000381469727,4.400000095367432,600,137.0,1000,6.599999904632568,-20,4,15,12420,23,3,800,1,2,4,5,6,11.109999656677246,0,128.0,100,4.400000095367432,5,1240,9.899999618530273,-58,1.100000023841858,1242,0,12,58,8.800000190734863,20,2.200000047683716,20,0,24,400,5.5,700,3.299999952316284,-75,12.119999885559082,1234,0,1700,111
1,123,-1010,12,7,9,1500,300,1,400,8,1.100000023841858,3.299999952316284,3,-101,1.100000023841858,56,0,7.699999809265137,-101,600,4.400000095367432,0,2,1242,2.200000047683716,-56,-5,321,5,700,1,3.299999952316284,666,2.200000047683716,333,10.100000381469727,4.400000095367432,600,137.0,1000,6.599999904632568,-18,4,15,12440,23,3,800,1,2,4,5,6,11.109999656677246,0,128.0,100,4.400000095367432,5,1242,9.899999618530273,-56,1.100000023841858,1244,0,12,56,8.800000190734863,21,2.200000047683716,21,0,24,400,5.5,700,3.299999952316284,-95,12.119999885559082,1234,0,1700,111
1,123,-1000,12,7,9,1500,300,1,400,8,1.100000023841858,3.299999952316284,3,-100,1.100000023841858,54,0,7.699999809265137,-100,600,4.400000095367432,0,2,1244,2.200000047683716,-54,-5,321,5,700,1,3.299999952316284,666,2.200000047683716,333,10.100000381469727,4.400000095367432,600,137.0,1000,6.599999904632568,-16,4,15,12460,23,3,800,1,2,4,5,6,11.109999656677246,0,128.0,100,4.400000095367432,5,1244,9.899999618530273,-54,1.100000023841858,1246,0,12,54,8.800000190734863,22,2.200000047683716,22,0,24,400,5.5,700,3.299999952316284,-95,12.119999885559082,1234,0,1700,111
1,123,-990,12,7,9,1500,300,1,400,8,1.100000023841858,3.299999952316284,3,-99,1.100000023841858,52,0,7.699999809265137,-99,600,4.400000095367432,0,2,1246,2.200000047683716,-52,-5,321,5,700,1,3.299999952316284,666,2.200000047683716,333,10.100000381469727,4.400000095367432,600,137.0,1000,6.599999904632568,-14,4,15,12480,23,3,800,1,2,4,5,6,11.109999656677246,0,128.0,100,4.400000095367432,5,1246,9.899999618530273,-52,1.100000023841858,1248,0,12,52,8.800000190734863,23,2.200000047683716,23,0,24,400,5.5,700,3.299999952316284,-95,12.119999885559082,1234,0,1700,111
1,123,-980,12,7,9,1500,300,1,400,8,1.100000023841858,3.299999952316284,3,-98,1.100000023841858,50,0,7.699999809265137,-98,600,4.400000095367432,0,2,1248,2.200000047683716,-50,-5,321,5,700,1,3.299999952316284,666,2.200000047683716,333,10.100000381469727,4.400000095367432,600,137.0,1000,6.599999904632568,-12,4,15,12500,23,3,800,1,2,4,5,6,11.109999656677246,0,128.0,100,4.400000095367432,5,1248,9.899999618530273,-50,1.100000023841858,1250,0,12,50,8.800000190734863,24,2.200000047683716,24,0,24,400,5.5,700,3.299999952316284,-95,12.119999885559082,1234,0,1700,111
1,123,-970,12,7,9,1500,300,1,400,8,1.100000023841858,3.299999952316284,3,-97,1.100000023841858,48,0,7.699999809265137,-97,600,4.400000095367432,0,2,1250,2.200000047683716,-48,-5,321,5,700,1,3.299999952316284,666,2.200000047683716,333,10.100000381469727,4.400000095367432,600,137.0,1000,6.599999904632568,-10,4,15,12520,23,3,800,1,2,4,5,6,11.109999656677246,0,128.0,100,4.400000095367432,5,1250,9.899999618530273,-48,1.100000023841858,1252,0,12,48,8.800000190734863,25,2.200000047683716,25,0,24,400,5.5,700,3.299999952316284,-95,12.119999885559082,1234,0,1700,111
1,123,-960,12,7,9,1500,300,1,400,8,1.100000023841858,3.299999952316284,3,-96,1.100000023841858,46,0,7.699999809265137,-96,600,4.400000095367432,0,2,1252,2.200000047683716,-46,-5,321,5,700,1,3.299999952316284,666,2.200000047683716,333,10.100000381469727,4.400000095367432,600,137.0,1000,6.599999904632568,-8,4,15,12540,23,3,800,1,2,4,5,6,11.109999656677246,0,128.0,100,4.400000095367432,5,1252,9.899999618530273,-46,1.100000023841858,1254,0,12,46,8.800000190734863,26,2.200000047683716,26,0,24,400,5.5,700,3.299999952316284,-27,12.119999885559082,1234,0,1700,111
1,123,-950,12,7,9,1500,300,1,400,8,1.100000023841858,3.299999952316284,3,-95,1.100000023841858,44,0,7.699999809265137,-95,600,4.400000095367432,0,2,1254,2.200000047683716,-44,-5,321,5,700,1,3.299999952316284,666,2.200000047683716,333,10.100000381469727,4.400000095367432,600,137.0,1000,6.599999904632568,-6,4,15,12560,23,3,800,1,2,4,5,6,11.109999656677246,0,128.0,100,4.400000095367432,5,1254,9.899999618530273,-44,1.100000023841858,1256,0,12,44,8.800000190734863,27,2.200000047683716,27,0,24,400,5.5,700,3.299999952316284,-27,12.119999885559082,1234,0,1700,111
1,123,-940,12,7,9,1500,300,1,400,8,1.100000023841858,3.299999952316284,3,-94,1.100000023841858,42,0,7.699999809265137,-94,600,4.400000095367432,0,2,1256,2.200000047683716,-42,-5,321,5,700,1,3.299999952316284,666,2.200000047683716,333,10.100000381469727,4.400000095367432,600,137.0,1000,6.599999904632568,-4,4,15,12580,23,3,800,1,2,4,5,6,11.109999656677246,0,128.0,100,4.400000095367432,5,1256,9.899999618530273,-42,1.100000023841858,1258,0,12,42,8.800000190734863,28,2.200000047683716,28,0,24,400,5.5,700,3.299999952316284,-27,12.119999885559082,1234,0,1700,111
1,123,-930,12,7,9,1500,300,1,400,8,1.100000023841858,3.299999952316284,3,-93,1.100000023841858,40,0,7.699999809265137,-93,600,4.400000095367432,0,2,1258,2.200000047683716,-40,-5,321,5,700,1,3.299999952316284,666,2.200000047683716,333,10.100000381469727,4.400000095367432,600,137.0,1000,6.599999904632568,-2,4,15,12600,23,3,800,1,2,4,5,6,11.109999656677246,0,128.0,100,4.400000095367432,5,1258,9.899999618530273,-40,1.100000023841858,1260,0,12,40,8.800000190734863,29,2.200000047683716,29,0,24,400,5.5,700,3.299999952316284,-27,12.119999885559082,1234,0,1700,111
1,123,-920,12,7,9,1500,300,1,400,8,1.100000023841858,3.299999952316284,3,-92,1.100000023841858,38,0,7.699999809265137,-92,600,4.400000095367432,0,2,1260,2.200000047683716,-38,-5,321,5,700,1,3.299999952316284,666,2.200000047683716,333,10.100000381469727,4.400000095367432,600,137.0,1000,6.599999904632568,0,4,15,12620,23,3,800,1,2,4,5,6,11.109999656677246,0,128.0,100,4.400000095367432,5,1260,9.899999618530273,-38,1.100000023841858,1262,0,12,38,8.800000190734863,30,2.200000047683716,30,0,24,400,5.5,700,3.299999952316284,-27,12.119999885559082,1234,0,1700,111
1,123,-910,12,7,9,1500,300,1,400,8,1.100000023841858,3.299999952316284,3,-91,1.100000023841858,36,0,7.699999809265137,-91,600,4.400000095367432,0,2,1262,2.200000047683716,-36,-5,321,5,700,1,3.299999952316284,666,2.200000047683716,333,10.100000381469727,4.400000095367432,600,137.0,1000,6.599999904632568,2,4,15,12640,23,3,800,1,2,4,5,6,11.109999656677246,0,128.0,100,4.400000095367432,5,1262,9.899999618530273,-36,1.100000023841858,1264,0,12,36,8.800000190734863,31,2.200000047683716,31,0,24,400,5.5,700,3.299999952316284,65,12.119999885559082,1234,0,1700,111
1,123,-900,12,7,9,1500,300,1,400,8,1.100000023841858,3.299999952316284,3,-90,1.100000023841858,34,0,7.699999809265137,-90,600,4.400000095367432,0,2,1264,2.200000047683716,-34,-5,321,5,700,1,3.299999952316284,666,2.200000047683716,333,10.100000381469727,4.400000095367432,600,137.0,1000,6.599999904632568,4,4,15,12660,23,3,800,1,2,4,5,6,11.109999656677246,0,128.0,100,4.400000095367432,5,1264,9.899999618530273,-34,1.100000023841858,1266,0,12,34,8.800000190734863,32,2.200000047683716,32,0,24,400,5.5,700,3.299999952316284,65,12.119999885559082,1234,0,1700,111
1,123,-890,12,7,9,1500,300,1,400,8,1.100000023841858,3.299999952316284,3,-89,1.100000023841858,32,0,7.699999809265137,-89,600,4.400000095367432,0,2,1266,2.200000047683716,-32,-5,321,5,700,1,3.299999952316284,666,2.200000047683716,333,10.100000381469727,4.400000095367432,600,137.0,1000,6.599999904632568,6,4,15,12680,23,3,800,1,2,4,5,6,11.109999656677246,0,128.0,100,4.400000095367432,5,1266,9.899999618530273,-32,1.100000023841858,1268,0,12,32,8.800000190734863,33,2.200000047683716,33,0,24,400,5.5,700,3.299999952316284,65,12.119999885559082,1234,0,1700,111
1,123,-880,12,7,9,1500,300,1,400,8,1.100000023841858,3.299999952316284,3,-88,1.100000023841858,30,0,7.699999809265137,-88,600,4.400000095367432,0,2,1268,2.200000047683716,-30,-5,321,5,700,1,3.299999952316284,666,2.200000047683716,333,10.100000381469727,4.400000095367432,600,137.0,1000,6.599999904632568,8,4,15,12700,23,3,800,1,2,4,5,6,11.109999656677246,0,128.0,100,4.400000095367432,5,1268,9.899999618530273,-30,1.100000023841858,1270,0,12,30,8.800000190734863,34,2.200000047683716,34,0,24,400,5.5,700,3.299999952316284,65,12.119999885559082,1234,0,1700,111
1,123,-870,12,7,9,1500,300,1,400,8,1.100000023841858,3.299999952316284,3,-87,1.100000023841858,28,0,7.699999809265137,-87,600,4.400000095367432,0,2,1270,2.200000047683716,-28,-5,321,5,700,1,3.299999952316284,666,2.200000047683716,333,10.100000381469727,4.400000095367432,600,137.0,1000,6.599999904632568,10,4,15,12720,23,3,800,1,2,4,5,6,11.109999656677246,0,128.0,100,4.400000095367432,5,1270,9.899999618530273,-28,1.100000023841858,1272,0,12,28,8.800000190734863,35,2.200000047683716,35,0,24,400,5.5,700,3.299999952316284,65,12.119999885559082,1234,0,1700,111
1,123,-860,12,7,9,1500,300,1,400,8,1.100000023841858,3.299999952316284,3,-86,1.100000023841858,26,0,7.699999809265137,-86,600,4.400000095367432,0,2,1272,2.200000047683716,-26,-5,321,5,700,1,3.299999952316284,666,2.200000047683716,333,10.100000381469727,4.400000095367432,600,137.0,1000,6.599999904632568,12,4,15,12740,23,3,800,1,2,4,5,6,11.109999656677246,0,128.0,100,4.400000095367432,5,1272,9.899999618530273,-26,1.100000023841858,1274,0,12,26,8.800000190734863,36,2.200000047683716,36,0,24,400,5.5,700,3.299999952316284,98,12.119999885559082,1234,0,1700,111
1,123,-850,12,7,9,1500,300,1,400,8,1.100000023841858,3.299999952316284,3,-85,1.100000023841858,24,0,7.699999809265137,-85,600,4.400000095367432,0,2,1274,2.200000047683716,-24,-5,321,5,700,1,3.299999952316284,666,2.200000047683716,333,10.100000381469727,4.400000095367432,600,137.0,1000,6.599999904632568,14,4,15,12760,23,3,800,1,2,4,5,6,11.109999656677246,0,128.0,100,4.400000095367432,5,1274,9.899999618530273,-24,1.100000023841858,1276,0,12,24,8.800000190734863,37,2.200000047683716,37,0,24,400,5.5,700,3.299999952316284,98,12.119999885559082,1234,0,1700,111
1,123,-840,12,7,9,1500,300,1,400,8,1.100000023841858,3.299999952316284,3,-84,1.100000023841858,22,0,7.699999809265137,-84,600,4.400000095367432,0,2,1276,2.200000047683716,-22,-5,321,5,700,1,3.299999952316284,666,2.200000047683716,333,10.100000381469727,4.400000095367432,600,137.0,1000,6.599999904632568,16,4,15,12780,23,3,800,1,2,4,5,6,11.109999656677246,0,128.0,100,4.400000095367432,5,1276,9.899999618530273,-22,1.100000023841858,1278,0,12,22,8.800000190734863,38,2.200000047683716,38,0,24,400,5.5,700,3.299999952316284,98,12.119999885559082,1234,0,1700,111
1,123,-830,12,7,9,1500,300,1,400,8,1.100000023841858,3.299999952316284,3,-83,1.100000023841858,20,0,7.699999809265137,-83,600,4.400000095367432,0,2,1278,2.200000047683716,-20,-5,321,5,700,1,3.299999952316284,666,2.200000047683716,333,10.100000381469727,4.400000095367432,600,137.0,1000,6.599999904632568,18,4,15,12800,23,3,800,1,2,4,5,6,11.109999656677246,0,128.0,100,4.400000095367432,5,1278,9.899999618530273,-20,1.100000023841858,1280,0,12,20,8.800000190734863,39,2.200000047683716,39,0,24,400,5.5,700,3.299999952316284,98,12.119999885559082,1234,0,1700,111
1,123,-820,12,7,9,1500,300,1,400,8,1.100000023841858,3.299999952316284,3,-82,1.100000023841858,18,0,7.699999809265137,-82,600,4.400000095367432,0,2,1280,2.200000047683716,-18,-5,321,5,700,1,3.299999952316284,666,2.200000047683716,333,10.100000381469727,4.400000095367432,600,137.0,1000,6.599999904632568,20,4,15,12820,23,3,800,1,2,4,5,6,11.109999656677246,0,128.0,100,4.400000095367432,5,1280,9.899999618530273,-18,1.100000023841858,1282,0,12,18,8.800000190734863,40,2.200000047683716,40,0,24,400,5.5,700,3.299999952316284,98,12.119999885559082,1234,0,1700,111
1,123,-810,12,7,9,1500,300,1,400,8,1.100000023841858,3.299999952316284,3,-81,1.100000023841858,16,0,7.699999809265137,-81,600,4.400000095367432,0,2,1282,2.200000047683716,-16,-5,321,5,700,1,3.299999952316284,666,2.200000047683716,333,10.100000381469727,4.400000095367432,600,137.0,1000,6.599999904632568,22,4,15,12840,23,3,800,1,2,4,5,6,11.109999656677246,0,128.0,100,4.400000095367432,5,1282,9.899999618530273,-16,1.100000023841858,1284,0,12,16,8.800000190734863,41,2.200000047683716,41,0,24,400,5.5,700,3.299999952316284,41,12.119999885559082,1234,0,1700,111
1,123,-800,12,7,9,1500,300,1,400,8,1.100000023841858,3.299999952316284,3,-80,1.100000023841858,14,0,7.699999809265137,-80,600,4.400000095367432,0,2,1284,2.200000047683716,-14,-5,321,5,700,1,3.299999952316284,666,2.200000047683716,333,10.100000381469727,4.400000095367432,600,137.0,1000,6.599999904632568,24,4,15,12860,23,3,800,1,2,4,5,6,11.109999656677246,0,128.0,100,4.400000095367432,5,1284,9.899999618530273,-14,1.100000023841858,1286,0,12,14,8.800000190734863,42,2.200000047683716,42,0,24,400,5.5,700,3.299999952316284,41,12.119999885559082,1234,0,1700,111
1,123,-790,12,7,9,1500,300,1,400,8,1.100000023841858,3.299999952316284,3,-79,1.100000023841858,12,0,7.699999809265137,-79,600,4.400000095367432,0,2,1286,2.200000047683716,-12,-5,321,5,700,1,3.299999952316284,666,2.200000047683716,333,10.100000381469727,4.400000095367432,600,137.0,1000,6.599999904632568,26,4,15,12880,23,3,800,1,2,4,5,6,11.109999656677246,0,128.0,100,4.400000095367432,5,1286,9.899999618530273,-12,1.100000023841858,1288,0,12,12,8.800000190734863,43,2.200000047683716,43,0,24,400,5.5,700,3.299999952316284,41,12.119999885559082,1234,0,1700,111
1,123,-780,12,7,9,1500,300,1,400,8,1.100000023841858,3.299999952316284,3,-78,1.100000023841858,10,0,7.699999809265137,-78,600,4.400000095367432,0,2,1288,2.200000047683716,-10,-5,321,5,700,1,3.299999952316284,666,2.200000047683716,333,10.100000381469727,4.400000095367432,600,137.0,1000,6.599999904632568,28,4,15,12900,23,3,800,1,2,4,5,6,11.109999656677246,0,128.0,100,4.400000095367432,5,1288,9.899999618530273,-10,1.100000023841858,1290,0,12,10,8.800000190734863,44,2.200000047683716,44,0,24,400,5.5,700,3.299999952316284,41,12.119999885559082,1234,0,1700,111
1,123,-770,12,7,9,1500,300,1,400,8,1.100000023841858,3.299999952316284,3,-77,1.100000023841858,8,0,7.699999809265137,-77,600,4.400000095367432,0,2,1290,2.200000047683716,-8,-5,321,5,700,1,3.299999952316284,666,2.200000047683716,333,10.100000381469727,4.400000095367432,600,137.0,1000,6.599999904632568,30,4,15,12920,23,3,800,1,2,4,5,6,11.109999656677246,0,128.0,100,4.400000095367432,5,1290,9.899999618530273,-8,1.100000023841858,1292,0,12,8,8.800000190734863,45,2.200000047683716,45,0,24,400,5.5,700,3.299999952316284,41,12.119999885559082,1234,0,1700,111
1,123,-760,12,7,9,1500,300,1,400,8,1.100000023841858,3.299999952316284,3,-76,1.100000023841858,6,0,7.699999809265137,-76,600,4.400000095367432,0,2,1292,2.200000047683716,-6,-5,321,5,700,1,3.299999952316284,666,2.200000047683716,333,10.100000381469727,4.400000095367432,600,137.0,1000,6.599999904632568,32,4,15,12940,23,3,800,1,2,4,5,6,11.109999656677246,0,128.0,100,4.400000095367432,5,1292,9.899999618530273,-6,1.100000023841858,1294,0,12,6,8.800000190734863,46,2.200000047683716,46,0,24,400,5.5,700,3.299999952316284,-54,12.119999885559082,1234,0,1700,111
