EscFeedbackLeftVoltage,MagZ,MagY,RCN[0],AnalogVbat,RCN[2],GPSLat,EscFeedbackLeftRpm,AccZ,EscFeedbackRightRpm,Datarpy[1],Datadrpy[1],StatusSensor,MotorSetpointLmotor,RightActuatorsCommandServo,MagX,Debug[2],Comp_gpsDist,GPSGGC,GyrY,RightActuatorsCommandSpeed,AttitudeRoll,EscFeedbackRightVoltage,DataPosition[2],StatusCycleTime,RC_channel[6],RightActuatorsCommandNewtons,DataVelocity[2],EscFeedbackLeftCurrent,DataPosition[1],GPSLong,RC_channel[8],AttitudePitch,RC_channel[10],AltitudeVario,RC_channel[0],RCN[6],GyrZ,AnalogPower,RC_channel[2],AltitudeAlt,RC_channel[4],Comp_gpsUpdate,StatusFlag,RCN[4],RCN[1],StatusNumi2cerror,EscFeedbackRightCurrent,Datarpy[0],Datadrpy[2],GPSNumsats,LeftActuatorsCommandServo,GPSAlt,DataVelocity[0],Comp_gpsDirection,Debug[3],DataPosition[0],AccY,AccX,MotorSetpointRmotor,Datarpy[2],AnalogRssi,RC_channel[11],DataVelocity[1],AnalogCurrent,GPSFix,LeftActuatorsCommandSpeed,RC_channel[7],ServoAngleLServoAngle,StatusGccs,RC_channel[9],GPSVeloc,AttitudeYaw,LeftActuatorsCommandNewtons,RC_channel[1],Debug[0],Datadrpy[0],RC_channel[3],RCN[3],ServoAngleRServoAngle,RCN[5],Debug[1],GyrX,RC_channel[5]
3.299999952316284,9,8,-2,15,-2,25,123,3,321,2.200000047683716,5.5,0,12,128.0,7,3,-19440,0,5,2.200000047683716,56,4.400000095367432,9.899999618530273,0,300,1.100000023841858,12.119999885559082,1.100000023841858,8.800000190734863,24,600,56,100,333,600,51,6,0,1000,666,1500,1,0,51,2,0,2.200000047683716,1.100000023841858,6.599999904632568,5,128.0,-19440,10.100000381469727,-116,4,7.699999809265137,2,1,12,3.299999952316284,-19440,400,11.109999656677246,1234,1,2.200000047683716,400,5,111,700,2208,560,1.100000023841858,700,1,4.400000095367432,1700,2,-5,49,2,4,800
3.299999952316284,9,8,-4,15,-4,25,123,3,321,2.200000047683716,5.5,0,12,128.0,7,3,-19438,0,5,2.200000047683716,57,4.400000095367432,9.899999618530273,0,300,1.100000023841858,12.119999885559082,1.100000023841858,8.800000190734863,24,600,57,100,333,600,52,6,0,1000,666,1500,1,0,52,4,0,2.200000047683716,1.100000023841858,6.599999904632568,5,128.0,-19438,10.100000381469727,-114,4,7.699999809265137,2,1,12,3.299999952316284,-19438,400,11.109999656677246,1234,1,2.200000047683716,400,5,111,700,2228,570,1.100000023841858,700,1,4.400000095367432,1700,4,-5,48,2,4,800
3.299999952316284,9,8,-6,15,-6,25,123,3,321,2.200000047683716,5.5,0,12,128.0,7,3,-19436,0,5,2.200000047683716,58,4.400000095367432,9.899999618530273,0,300,1.100000023841858,12.119999885559082,1.100000023841858,8.800000190734863,24,600,58,100,333,600,53,6,0,1000,666,1500,1,0,53,6,0,2.200000047683716,1.100000023841858,6.599999904632568,5,128.0,-19436,10.100000381469727,-112,4,7.699999809265137,2,1,12,3.299999952316284,-19436,400,11.109999656677246,1234,1,2.200000047683716,400,5,111,700,2248,580,1.100000023841858,700,1,4.400000095367432,1700,6,-5,47,2,4,800
3.299999952316284,9,8,-8,15,-8,25,123,3,321,2.200000047683716,5.5,0,12,128.0,7,3,-19434,0,5,2.200000047683716,59,4.400000095367432,9.899999618530273,0,300,1.100000023841858,12.119999885559082,1.100000023841858,8.800000190734863,24,600,59,100,333,600,54,6,0,1000,666,1500,1,0,54,8,0,2.200000047683716,1.100000023841858,6.599999904632568,5,128.0,-19434,10.100000381469727,-110,4,7.699999809265137,2,1,12,3.299999952316284,-19434,400,11.109999656677246,1234,1,2.200000047683716,400,5,111,700,2268,590,1.100000023841858,700,1,4.400000095367432,1700,8,-5,46,2,4,800
3.299999952316284,9,8,-10,15,-10,25,123,3,321,2.200000047683716,5.5,0,12,128.0,7,3,-19432,0,5,2.200000047683716,60,4.400000095367432,9.899999618530273,0,300,1.100000023841858,12.119999885559082,1.100000023841858,8.800000190734863,24,600,60,100,333,600,55,6,0,1000,666,1500,1,0,55,10,0,2.200000047683716,1.100000023841858,6.599999904632568,5,128.0,-19432,10.100000381469727,-108,4,7.699999809265137,2,1,12,3.299999952316284,-19432,400,11.109999656677246,1234,1,2.200000047683716,400,5,111,700,2288,600,1.100000023841858,700,1,4.400000095367432,1700,10,-5,45,2,4,800
3.299999952316284,9,8,-12,15,-12,25,123,3,321,2.200000047683716,5.5,0,12,128.0,7,3,-19430,0,5,2.200000047683716,61,4.400000095367432,9.899999618530273,0,300,1.100000023841858,12.119999885559082,1.100000023841858,8.800000190734863,24,600,61,100,333,600,56,6,0,1000,666,1500,1,0,56,12,0,2.200000047683716,1.100000023841858,6.599999904632568,5,128.0,-19430,10.100000381469727,-106,4,7.699999809265137,2,1,12,3.299999952316284,-19430,400,11.109999656677246,1234,1,2.200000047683716,400,5,111,700,2308,610,1.100000023841858,700,1,4.400000095367432,1700,12,-5,44,2,4,800
3.299999952316284,9,8,-14,15,-14,25,123,3,321,2.200000047683716,5.5,0,12,128.0,7,3,-19428,0,5,2.200000047683716,62,4.400000095367432,9.899999618530273,0,300,1.100000023841858,12.119999885559082,1.100000023841858,8.800000190734863,24,600,62,100,333,600,57,6,0,1000,666,1500,1,0,57,14,0,2.200000047683716,1.100000023841858,6.599999904632568,5,128.0,-19428,10.100000381469727,-104,4,7.699999809265137,2,1,12,3.299999952316284,-19428,400,11.109999656677246,1234,1,2.200000047683716,400,5,111,700,2328,620,1.100000023841858,700,1,4.400000095367432,1700,14,-5,43,2,4,800
3.299999952316284,9,8,-16,15,-16,25,123,3,321,2.200000047683716,5.5,0,12,128.0,7,3,-19426,0,5,2.200000047683716,63,4.400000095367432,9.899999618530273,0,300,1.100000023841858,12.119999885559082,1.100000023841858,8.800000190734863,24,600,63,100,333,600,58,6,0,1000,666,1500,1,0,58,16,0,2.200000047683716,1.100000023841858,6.599999904632568,5,128.0,-19426,10.100000381469727,-102,4,7.699999809265137,2,1,12,3.299999952316284,-19426,400,11.109999656677246,1234,1,2.200000047683716,400,5,111,700,2348,630,1.100000023841858,700,1,4.400000095367432,1700,16,-5,42,2,4,800
3.299999952316284,9,8,-18,15,-18,25,123,3,321,2.200000047683716,5.5,0,12,128.0,7,3,-19424,0,5,2.200000047683716,64,4.400000095367432,9.899999618530273,0,300,1.100000023841858,12.119999885559082,1.100000023841858,8.800000190734863,24,600,64,100,333,600,59,6,0,1000,666,1500,1,0,59,18,0,2.200000047683716,1.100000023841858,6.599999904632568,5,128.0,-19424,10.100000381469727,-100,4,7.699999809265137,2,1,12,3.299999952316284,-19424,400,11.109999656677246,1234,1,2.200000047683716,400,5,111,700,2368,640,1.100000023841858,700,1,4.400000095367432,1700,18,-5,41,2,4,800
3.299999952316284,9,8,-20,15,-20,25,123,3,321,2.200000047683716,5.5,0,12,128.0,7,3,-19422,0,5,2.200000047683716,65,4.400000095367432,9.899999618530273,0,300,1.100000023841858,12.119999885559082,1.100000023841858,8.800000190734863,24,600,65,100,333,600,60,6,0,1000,666,1500,1,0,60,20,0,2.200000047683716,1.100000023841858,6.599999904632568,5,128.0,-19422,10.100000381469727,-98,4,7.699999809265137,2,1,12,3.299999952316284,-19422,400,11.109999656677246,1234,1,2.200000047683716,400,5,111,700,2388,650,1.100000023841858,700,1,4.400000095367432,1700,20,-5,40,2,4,800
3.299999952316284,9,8,-22,15,-22,25,123,3,321,2.200000047683716,5.5,0,12,128.0,7,3,-19420,0,5,2.200000047683716,66,4.400000095367432,9.899999618530273,0,300,1.100000023841858,12.119999885559082,1.100000023841858,8.800000190734863,24,600,66,100,333,600,61,6,0,1000,666,1500,1,0,61,22,0,2.200000047683716,1.100000023841858,6.599999904632568,5,128.0,-19420,10.100000381469727,-96,4,7.699999809265137,2,1,12,3.299999952316284,-19420,400,11.109999656677246,1234,1,2.200000047683716,400,5,111,700,2408,660,1.100000023841858,700,1,4.400000095367432,1700,22,-5,39,2,4,800
3.299999952316284,9,8,-24,15,-24,25,123,3,321,2.200000047683716,5.5,0,12,128.0,7,3,-19418,0,5,2.200000047683716,67,4.400000095367432,9.899999618530273,0,300,1.100000023841858,12.119999885559082,1.100000023841858,8.800000190734863,24,600,67,100,333,600,62,6,0,1000,666,1500,1,0,62,24,0,2.200000047683716,1.100000023841858,6.599999904632568,5,128.0,-19418,10.100000381469727,-94,4,7.699999809265137,2,1,12,3.299999952316284,-19418,400,11.109999656677246,1234,1,2.200000047683716,400,5,111,700,2428,670,1.100000023841858,700,1,4.400000095367432,1700,24,-5,38,2,4,800
3.299999952316284,9,8,-26,15,-26,25,123,3,321,2.200000047683716,5.5,0,12,128.0,7,3,-19416,0,5,2.200000047683716,68,4.400000095367432,9.899999618530273,0,300,1.100000023841858,12.119999885559082,1.100000023841858,8.800000190734863,24,600,68,100,333,600,63,6,0,1000,666,1500,1,0,63,26,0,2.200000047683716,1.100000023841858,6.599999904632568,5,128.0,-19416,10.100000381469727,-92,4,7.699999809265137,2,1,12,3.299999952316284,-19416,400,11.109999656677246,1234,1,2.200000047683716,400,5,111,700,2448,680,1.100000023841858,700,1,4.400000095367432,1700,26,-5,37,2,4,800
3.299999952316284,9,8,-28,15,-28,25,123,3,321,2.200000047683716,5.5,0,12,128.0,7,3,-19414,0,5,2.200000047683716,69,4.400000095367432,9.899999618530273,0,300,1.100000023841858,12.119999885559082,1.100000023841858,8.800000190734863,24,600,69,100,333,600,64,6,0,1000,666,1500,1,0,64,28,0,2.200000047683716,1.100000023841858,6.599999904632568,5,128.0,-19414,10.100000381469727,-90,4,7.699999809265137,2,1,12,3.299999952316284,-19414,400,11.109999656677246,1234,1,2.200000047683716,400,5,111,700,2468,690,1.100000023841858,700,1,4.400000095367432,1700,28,-5,36,2,4,800
3.299999952316284,9,8,-30,15,-30,25,123,3,321,2.200000047683716,5.5,0,12,128.0,7,3,-19412,0,5,2.200000047683716,70,4.400000095367432,9.899999618530273,0,300,1.100000023841858,12.119999885559082,1.100000023841858,8.800000190734863,24,600,70,100,333,600,65,6,0,1000,666,1500,1,0,65,30,0,2.200000047683716,1.100000023841858,6.599999904632568,5,128.0,-19412,10.100000381469727,-88,4,7.699999809265137,2,1,12,3.299999952316284,-19412,400,11.109999656677246,1234,1,2.200000047683716,400,5,111,700,2488,700,1.100000023841858,700,1,4.400000095367432,1700,30,-5,35,2,4,800
3.299999952316284,9,8,-32,15,-32,25,123,3,321,2.200000047683716,5.5,0,12,128.0,7,3,-19410,0,5,2.200000047683716,71,4.400000095367432,9.899999618530273,0,300,1.100000023841858,12.119999885559082,1.100000023841858,8.800000190734863,24,600,71,100,333,600,66,6,0,1000,666,1500,1,0,66,32,0,2.200000047683716,1.100000023841858,6.599999904632568,5,128.0,-19410,10.100000381469727,-86,4,7.699999809265137,2,1,12,3.299999952316284,-19410,400,11.109999656677246,1234,1,2.200000047683716,400,5,111,700,2508,710,1.100000023841858,700,1,4.400000095367432,1700,32,-5,34,2,4,800
3.299999952316284,9,8,-34,15,-34,25,123,3,321,2.200000047683716,5.5,0,12,128.0,7,3,-19408,0,5,2.200000047683716,72,4.400000095367432,9.899999618530273,0,300,1.100000023841858,12.119999885559082,1.100000023841858,8.800000190734863,24,600,72,100,333,600,67,6,0,1000,666,1500,1,0,67,34,0,2.200000047683716,1.100000023841858,6.599999904632568,5,128.0,-19408,10.100000381469727,-84,4,7.699999809265137,2,1,12,3.299999952316284,-19408,400,11.109999656677246,1234,1,2.200000047683716,400,5,111,700,2528,720,1.100000023841858,700,1,4.400000095367432,1700,34,-5,33,2,4,800
3.299999952316284,9,8,-36,15,-36,25,123,3,321,2.200000047683716,5.5,0,12,128.0,7,3,-19406,0,5,2.200000047683716,73,4.400000095367432,9.899999618530273,0,300,1.100000023841858,12.119999885559082,1.100000023841858,8.800000190734863,24,600,73,100,333,600,68,6,0,1000,666,1500,1,0,68,36,0,2.200000047683716,1.100000023841858,6.599999904632568,5,128.0,-19406,10.100000381469727,-82,4,7.699999809265137,2,1,12,3.299999952316284,-19406,400,11.109999656677246,1234,1,2.200000047683716,400,5,111,700,2548,730,1.100000023841858,700,1,4.400000095367432,1700,36,-5,32,2,4,800
3.299999952316284,9,8,-38,15,-38,25,123,3,321,2.200000047683716,5.5,0,12,128.0,7,3,-19404,0,5,2.200000047683716,74,4.400000095367432,9.899999618530273,0,300,1.100000023841858,12.119999885559082,1.100000023841858,8.800000190734863,24,600,74,100,333,600,69,6,0,1000,666,1500,1,0,69,38,0,2.200000047683716,1.100000023841858,6.599999904632568,5,128.0,-19404,10.100000381469727,-80,4,7.699999809265137,2,1,12,3.299999952316284,-19404,400,11.109999656677246,1234,1,2.200000047683716,400,5,111,700,2568,740,1.100000023841858,700,1,4.400000095367432,1700,38,-5,31,2,4,800
3.299999952316284,9,8,-40,15,-40,25,123,3,321,2.200000047683716,5.5,0,12,128.0,7,3,-19402,0,5,2.200000047683716,75,4.400000095367432,9.899999618530273,0,300,1.100000023841858,12.119999885559082,1.100000023841858,8.800000190734863,24,600,75,100,333,600,70,6,0,1000,666,1500,1,0,70,40,0,2.200000047683716,1.100000023841858,6.599999904632568,5,128.0,-19402,10.100000381469727,-78,4,7.699999809265137,2,1,12,3.299999952316284,-19402,400,11.109999656677246,1234,1,2.200000047683716,400,5,111,700,2588,750,1.100000023841858,700,1,4.400000095367432,1700,40,-5,30,2,4,800
3.299999952316284,9,8,-42,15,-42,25,123,3,321,2.200000047683716,5.5,0,12,128.0,7,3,-19400,0,5,2.200000047683716,76,4.400000095367432,9.899999618530273,0,300,1.100000023841858,12.119999885559082,1.100000023841858,8.800000190734863,24,600,76,100,333,600,71,6,0,1000,666,1500,1,0,71,42,0,2.200000047683716,1.100000023841858,6.599999904632568,5,128.0,-19400,10.100000381469727,-76,4,7.699999809265137,2,1,12,3.299999952316284,-19400,400,11.109999656677246,1234,1,2.200000047683716,400,5,111,700,2608,760,1.100000023841858,700,1,4.400000095367432,1700,42,-5,29,2,4,800
3.299999952316284,9,8,-44,15,-44,25,123,3,321,2.200000047683716,5.5,0,12,128.0,7,3,-19398,0,5,2.200000047683716,77,4.400000095367432,9.899999618530273,0,300,1.100000023841858,12.119999885559082,1.100000023841858,8.800000190734863,24,600,77,100,333,600,72,6,0,1000,666,1500,1,0,72,44,0,2.200000047683716,1.100000023841858,6.599999904632568,5,128.0,-19398,10.100000381469727,-74,4,7.699999809265137,2,1,12,3.299999952316284,-19398,400,11.109999656677246,1234,1,2.200000047683716,400,5,111,700,2628,770,1.100000023841858,700,1,4.400000095367432,1700,44,-5,28,2,4,800
3.299999952316284,9,8,-46,15,-46,25,123,3,321,2.200000047683716,5.5,0,12,128.0,7,3,-19396,0,5,2.200000047683716,78,4.400000095367432,9.899999618530273,0,300,1.100000023841858,12.119999885559082,1.100000023841858,8.800000190734863,24,600,78,100,333,600,73,6,0,1000,666,1500,1,0,73,46,0,2.200000047683716,1.100000023841858,6.599999904632568,5,128.0,-19396,10.100000381469727,-72,4,7.699999809265137,2,1,12,3.299999952316284,-19396,400,11.109999656677246,1234,1,2.200000047683716,400,5,111,700,2648,780,1.100000023841858,700,1,4.400000095367432,1700,46,-5,27,2,4,800
3.299999952316284,9,8,-48,15,-48,25,123,3,321,2.200000047683716,5.5,0,12,128.0,7,3,-19394,0,5,2.200000047683716,79,4.400000095367432,9.899999618530273,0,300,1.100000023841858,12.119999885559082,1.100000023841858,8.800000190734863,24,600,79,100,333,600,74,6,0,1000,666,1500,1,0,74,48,0,2.200000047683716,1.100000023841858,6.599999904632568,5,128.0,-19394,10.100000381469727,-70,4,7.699999809265137,2,1,12,3.299999952316284,-19394,400,11.109999656677246,1234,1,2.200000047683716,400,5,111,700,2668,790,1.100000023841858,700,1,4.400000095367432,1700,48,-5,26,2,4,800
3.299999952316284,9,8,-50,15,-50,25,123,3,321,2.200000047683716,5.5,0,12,128.0,7,3,-19392,0,5,2.200000047683716,80,4.400000095367432,9.899999618530273,0,300,1.100000023841858,12.119999885559082,1.100000023841858,8.800000190734863,24,600,80,100,333,600,75,6,0,1000,666,1500,1,0,75,50,0,2.200000047683716,1.100000023841858,6.599999904632568,5,128.0,-19392,10.100000381469727,-68,4,7.699999809265137,2,1,12,3.299999952316284,-19392,400,11.109999656677246,1234,1,2.200000047683716,400,5,111,700,2688,800,1.100000023841858,700,1,4.400000095367432,1700,50,-5,25,2,4,800
3.299999952316284,9,8,-52,15,-52,25,123,3,321,2.200000047683716,5.5,0,12,128.0,7,3,-19390,0,5,2.200000047683716,81,4.400000095367432,9.899999618530273,0,300,1.100000023841858,12.119999885559082,1.100000023841858,8.800000190734863,24,600,81,100,333,600,76,6,0,1000,666,1500,1,0,76,52,0,2.200000047683716,1.100000023841858,6.599999904632568,5,128.0,-19390,10.100000381469727,-66,4,7.699999809265137,2,1,12,3.299999952316284,-19390,400,11.109999656677246,1234,1,2.200000047683716,400,5,111,700,2708,810,1.100000023841858,700,1,4.400000095367432,1700,52,-5,24,2,4,800
3.299999952316284,9,8,-54,15,-54,25,123,3,321,2.200000047683716,5.5,0,12,128.0,7,3,-19388,0,5,2.200000047683716,82,4.400000095367432,9.899999618530273,0,300,1.100000023841858,12.119999885559082,1.100000023841858,8.800000190734863,24,600,82,100,333,600,77,6,0,1000,666,1500,1,0,77,54,0,2.200000047683716,1.100000023841858,6.599999904632568,5,128.0,-19388,10.100000381469727,-64,4,7.699999809265137,2,1,12,3.299999952316284,-19388,400,11.109999656677246,1234,1,2.200000047683716,400,5,111,700,2728,820,1.100000023841858,700,1,4.400000095367432,1700,54,-5,23,2,4,800
3.299999952316284,9,8,-56,15,-56,25,123,3,321,2.200000047683716,5.5,0,12,128.0,7,3,-19386,0,5,2.200000047683716,83,4.400000095367432,9.899999618530273,0,300,1.100000023841858,12.119999885559082,1.100000023841858,8.800000190734863,24,600,83,100,333,600,78,6,0,1000,666,1500,1,0,78,56,0,2.200000047683716,1.100000023841858,6.599999904632568,5,128.0,-19386,10.100000381469727,-62,4,7.699999809265137,2,1,12,3.299999952316284,-19386,400,11.109999656677246,1234,1,2.200000047683716,400,5,111,700,2748,830,1.100000023841858,700,1,4.400000095367432,1700,56,-5,22,2,4,800
3.299999952316284,9,8,-58,15,-58,25,123,3,321,2.200000047683716,5.5,0,12,128.0,7,3,-19384,0,5,2.200000047683716,84,4.400000095367432,9.899999618530273,0,300,1.100000023841858,12.119999885559082,1.100000023841858,8.800000190734863,24,600,84,100,333,600,79,6,0,1000,666,1500,1,0,79,58,0,2.200000047683716,1.100000023841858,6.599999904632568,5,128.0,-19384,10.100000381469727,-60,4,7.699999809265137,2,1,12,3.299999952316284,-19384,400,11.109999656677246,1234,1,2.200000047683716,400,5,111,700,2768,840,1.100000023841858,700,1,4.400000095367432,1700,58,-5,21,2,4,800
3.299999952316284,9,8,-60,15,-60,25,123,3,321,2.200000047683716,5.5,0,12,128.0,7,3,-19382,0,5,2.200000047683716,85,4.400000095367432,9.899999618530273,0,300,1.100000023841858,12.119999885559082,1.100000023841858,8.800000190734863,24,600,85,100,333,600,80,6,0,1000,666,1500,1,0,80,60,0,2.200000047683716,1.100000023841858,6.599999904632568,5,128.0,-19382,10.100000381469727,-58,4,7.699999809265137,2,1,12,3.299999952316284,-19382,400,11.109999656677246,1234,1,2.200000047683716,400,5,111,700,2788,850,1.100000023841858,700,1,4.400000095367432,1700,60,-5,20,2,4,800
3.299999952316284,9,8,-62,15,-62,25,123,3,321,2.200000047683716,5.5,0,12,128.0,7,3,-19380,0,5,2.200000047683716,86,4.400000095367432,9.899999618530273,0,300,1.100000023841858,12.119999885559082,1.100000023841858,8.800000190734863,24,600,86,100,333,600,81,6,0,1000,666,1500,1,0,81,62,0,2.200000047683716,1.100000023841858,6.599999904632568,5,128.0,-19380,10.100000381469727,-56,4,7.699999809265137,2,1,12,3.299999952316284,-19380,400,11.109999656677246,1234,1,2.200000047683716,400,5,111,700,2808,860,1.100000023841858,700,1,4.400000095367432,1700,62,-5,19,2,4,800
3.299999952316284,9,8,-64,15,-64,25,123,3,321,2.200000047683716,5.5,0,12,128.0,7,3,-19378,0,5,2.200000047683716,87,4.400000095367432,9.899999618530273,0,300,1.100000023841858,12.119999885559082,1.100000023841858,8.800000190734863,24,600,87,100,333,600,82,6,0,1000,666,1500,1,0,82,64,0,2.200000047683716,1.100000023841858,6.599999904632568,5,128.0,-19378,10.100000381469727,-54,4,7.699999809265137,2,1,12,3.299999952316284,-19378,400,11.109999656677246,1234,1,2.200000047683716,400,5,111,700,2828,870,1.100000023841858,700,1,4.400000095367432,1700,64,-5,18,2,4,800
3.299999952316284,9,8,-66,15,-66,25,123,3,321,2.200000047683716,5.5,0,12,128.0,7,3,-19376,0,5,2.200000047683716,88,4.400000095367432,9.899999618530273,0,300,1.100000023841858,12.119999885559082,1.100000023841858,8.800000190734863,24,600,88,100,333,600,83,6,0,1000,666,1500,1,0,83,66,0,2.200000047683716,1.100000023841858,6.599999904632568,5,128.0,-19376,10.100000381469727,-52,4,7.699999809265137,2,1,12,3.299999952316284,-19376,400,11.109999656677246,1234,1,2.200000047683716,400,5,111,700,2848,880,1.100000023841858,700,1,4.400000095367432,1700,66,-5,17,2,4,800
3.299999952316284,9,8,-68,15,-68,25,123,3,321,2.200000047683716,5.5,0,12,128.0,7,3,-19374,0,5,2.200000047683716,89,4.400000095367432,9.899999618530273,0,300,1.100000023841858,12.119999885559082,1.100000023841858,8.800000190734863,24,600,89,100,333,600,84,6,0,1000,666,1500,1,0,84,68,0,2.200000047683716,1.100000023841858,6.599999904632568,5,128.0,-19374,10.100000381469727,-50,4,7.699999809265137,2,1,12,3.299999952316284,-19374,400,11.109999656677246,1234,1,2.200000047683716,400,5,111,700,2868,890,1.100000023841858,700,1,4.400000095367432,1700,68,-5,16,2,4,800
3.299999952316284,9,8,-70,15,-70,25,123,3,321,2.200000047683716,5.5,0,12,128.0,7,3,-19372,0,5,2.200000047683716,90,4.400000095367432,9.899999618530273,0,300,1.100000023841858,12.119999885559082,1.100000023841858,8.800000190734863,24,600,90,100,333,600,85,6,0,1000,666,1500,1,0,85,70,0,2.200000047683716,1.100000023841858,6.599999904632568,5,128.0,-19372,10.100000381469727,-48,4,7.699999809265137,2,1,12,3.299999952316284,-19372,400,11.109999656677246,1234,1,2.200000047683716,400,5,111,700,2888,900,1.100000023841858,700,1,4.400000095367432,1700,70,-5,15,2,4,800
3.299999952316284,9,8,-72,15,-72,25,123,3,321,2.200000047683716,5.5,0,12,128.0,7,3,-19370,0,5,2.200000047683716,91,4.400000095367432,9.899999618530273,0,300,1.100000023841858,12.119999885559082,1.100000023841858,8.800000190734863,24,600,91,100,333,600,86,6,0,1000,666,1500,1,0,86,72,0,2.200000047683716,1.100000023841858,6.599999904632568,5,128.0,-19370,10.100000381469727,-46,4,7.699999809265137,2,1,12,3.299999952316284,-19370,400,11.109999656677246,1234,1,2.200000047683716,400,5,111,700,2908,910,1.100000023841858,700,1,4.400000095367432,1700,72,-5,14,2,4,800
3.299999952316284,9,8,-74,15,-74,25,123,3,321,2.200000047683716,5.5,0,12,128.0,7,3,-19368,0,5,2.200000047683716,92,4.400000095367432,9.899999618530273,0,300,1.100000023841858,12.119999885559082,1.100000023841858,8.800000190734863,24,600,92,100,333,600,87,6,0,1000,666,1500,1,0,87,74,0,2.200000047683716,1.100000023841858,6.599999904632568,5,128.0,-19368,10.100000381469727,-44,4,7.699999809265137,2,1,12,3.299999952316284,-19368,400,11.109999656677246,1234,1,2.200000047683716,400,5,111,700,2928,920,1.100000023841858,700,1,4.400000095367432,1700,74,-5,13,2,4,800
3.299999952316284,9,8,-76,15,-76,25,123,3,321,2.200000047683716,5.5,0,12,128.0,7,3,-19366,0,5,2.200000047683716,93,4.400000095367432,9.899999618530273,0,300,1.100000023841858,12.119999885559082,1.100000023841858,8.800000190734863,24,600,93,100,333,600,88,6,0,1000,666,1500,1,0,88,76,0,2.200000047683716,1.100000023841858,6.599999904632568,5,128.0,-19366,10.100000381469727,-42,4,7.699999809265137,2,1,12,3.299999952316284,-19366,400,11.109999656677246,1234,1,2.200000047683716,400,5,111,700,2948,930,1.100000023841858,700,1,4.400000095367432,1700,76,-5,12,2,4,800
3.299999952316284,9,8,-78,15,-78,25,123,3,321,2.200000047683716,5.5,0,12,128.0,7,3,-19364,0,5,2.200000047683716,94,4.400000095367432,9.899999618530273,0,300,1.100000023841858,12.119999885559082,1.100000023841858,8.800000190734863,24,600,94,100,333,600,89,6,0,1000,666,1500,1,0,89,78,0,2.200000047683716,1.100000023841858,6.599999904632568,5,128.0,-19364,10.100000381469727,-40,4,7.699999809265137,2,1,12,3.299999952316284,-19364,400,11.109999656677246,1234,1,2.200000047683716,400,5,111,700,2968,940,1.100000023841858,700,1,4.400000095367432,1700,78,-5,11,2,4,800
3.299999952316284,9,8,-80,15,-80,25,123,3,321,2.200000047683716,5.5,0,12,128.0,7,3,-19362,0,5,2.200000047683716,95,4.400000095367432,9.899999618530273,0,300,1.100000023841858,12.119999885559082,1.100000023841858,8.800000190734863,24,600,95,100,333,600,90,6,0,1000,666,1500,1,0,90,80,0,2.200000047683716,1.100000023841858,6.599999904632568,5,128.0,-19362,10.100000381469727,-38,4,7.699999809265137,2,1,12,3.299999952316284,-19362,400,11.109999656677246,1234,1,2.200000047683716,400,5,111,700,2988,950,1.100000023841858,700,1,4.400000095367432,1700,80,-5,10,2,4,800
3.299999952316284,9,8,-82,15,-82,25,123,3,321,2.200000047683716,5.5,0,12,128.0,7,3,-19360,0,5,2.200000047683716,96,4.400000095367432,9.899999618530273,0,300,1.100000023841858,12.119999885559082,1.100000023841858,8.800000190734863,24,600,96,100,333,600,91,6,0,1000,666,1500,1,0,91,82,0,2.200000047683716,1.100000023841858,6.599999904632568,5,128.0,-19360,10.100000381469727,-36,4,7.699999809265137,2,1,12,3.299999952316284,-19360,400,11.109999656677246,1234,1,2.200000047683716,400,5,111,700,3008,960,1.100000023841858,700,1,4.400000095367432,1700,82,-5,9,2,4,800
3.299999952316284,9,8,-84,15,-84,25,123,3,321,2.200000047683716,5.5,0,12,128.0,7,3,-19358,0,5,2.200000047683716,97,4.400000095367432,9.899999618530273,0,300,1.100000023841858,12.119999885559082,1.100000023841858,8.800000190734863,24,600,97,100,333,600,92,6,0,1000,666,1500,1,0,92,84,0,2.200000047683716,1.100000023841858,6.599999904632568,5,128.0,-19358,10.100000381469727,-34,4,7.699999809265137,2,1,12,3.299999952316284,-19358,400,11.109999656677246,1234,1,2.200000047683716,400,5,111,700,3028,970,1.100000023841858,700,1,4.400000095367432,1700,84,-5,8,2,4,800
3.299999952316284,9,8,-86,15,-86,25,123,3,321,2.200000047683716,5.5,0,12,128.0,7,3,-19356,0,5,2.200000047683716,98,4.400000095367432,9.899999618530273,0,300,1.100000023841858,12.119999885559082,1.100000023841858,8.800000190734863,24,600,98,100,333,600,93,6,0,1000,666,1500,1,0,93,86,0,2.200000047683716,1.100000023841858,6.599999904632568,5,128.0,-19356,10.100000381469727,-32,4,7.699999809265137,2,1,12,3.299999952316284,-19356,400,11.109999656677246,1234,1,2.200000047683716,400,5,111,700,3048,980,1.100000023841858,700,1,4.400000095367432,1700,86,-5,7,2,4,800
3.299999952316284,9,8,-88,15,-88,25,123,3,321,2.200000047683716,5.5,0,12,128.0,7,3,-19354,0,5,2.200000047683716,99,4.400000095367432,9.899999618530273,0,300,1.100000023841858,12.119999885559082,1.100000023841858,8.800000190734863,24,600,99,100,333,600,94,6,0,1000,666,1500,1,0,94,88,0,2.200000047683716,1.100000023841858,6.599999904632568,5,128.0,-19354,10.100000381469727,-30,4,7.699999809265137,2,1,12,3.299999952316284,-19354,400,11.109999656677246,1234,1,2.200000047683716,400,5,111,700,3068,990,1.100000023841858,700,1,4.400000095367432,1700,88,-5,6,2,4,800
3.299999952316284,9,8,-90,15,-90,25,123,3,321,2.200000047683716,5.5,0,12,128.0,7,3,-19352,0,5,2.200000047683716,100,4.400000095367432,9.899999618530273,0,300,1.100000023841858,12.119999885559082,1.100000023841858,8.800000190734863,24,600,100,100,333,600,95,6,0,1000,666,1500,1,0,95,90,0,2.200000047683716,1.100000023841858,6.599999904632568,5,128.0,-19352,10.100000381469727,-28,4,7.699999809265137,2,1,12,3.299999952316284,-19352,400,11.109999656677246,1234,1,2.200000047683716,400,5,111,700,3088,1000,1.100000023841858,700,1,4.400000095367432,1700,90,-5,5,2,4,800
3.299999952316284,9,8,-92,15,-92,25,123,3,321,2.200000047683716,5.5,0,12,128.0,7,3,-19350,0,5,2.200000047683716,101,4.400000095367432,9.899999618530273,0,300,1.100000023841858,12.119999885559082,1.100000023841858,8.800000190734863,24,600,101,100,333,600,96,6,0,1000,666,1500,1,0,96,92,0,2.200000047683716,1.100000023841858,6.599999904632568,5,128.0,-19350,10.100000381469727,-26,4,7.699999809265137,2,1,12,3.299999952316284,-19350,400,11.109999656677246,1234,1,2.200000047683716,400,5,111,700,3108,1010,1.100000023841858,700,1,4.400000095367432,1700,92,-5,4,2,4,800
3.299999952316284,9,8,-94,15,-94,25,123,3,321,2.200000047683716,5.5,0,12,128.0,7,3,-19348,0,5,2.200000047683716,102,4.400000095367432,9.899999618530273,0,300,1.100000023841858,12.119999885559082,1.100000023841858,8.800000190734863,24,600,102,100,333,600,97,6,0,1000,666,1500,1,0,97,94,0,2.200000047683716,1.100000023841858,6.599999904632568,5,128.0,-19348,10.100000381469727,-24,4,7.699999809265137,2,1,12,3.299999952316284,-19348,400,11.109999656677246,1234,1,2.200000047683716,400,5,111,700,3128,1020,1.100000023841858,700,1,4.400000095367432,1700,94,-5,3,2,4,800
3.299999952316284,9,8,-96,15,-96,25,123,3,321,2.200000047683716,5.5,0,12,128.0,7,3,-19346,0,5,2.200000047683716,103,4.400000095367432,9.899999618530273,0,300,1.100000023841858,12.119999885559082,1.100000023841858,8.800000190734863,24,600,103,100,333,600,98,6,0,1000,666,1500,1,0,98,96,0,2.200000047683716,1.100000023841858,6.599999904632568,5,128.0,-19346,10.100000381469727,-22,4,7.699999809265137,2,1,12,3.299999952316284,-19346,400,11.109999656677246,1234,1,2.200000047683716,400,5,111,700,3148,1030,1.100000023841858,700,1,4.400000095367432,1700,96,-5,2,2,4,800
3.299999952316284,9,8,-98,15,-98,25,123,3,321,2.200000047683716,5.5,0,12,128.0,7,3,-19344,0,5,2.200000047683716,104,4.400000095367432,9.899999618530273,0,300,1.100000023841858,12.119999885559082,1.100000023841858,8.800000190734863,24,600,104,100,333,600,99,6,0,1000,666,1500,1,0,99,98,0,2.200000047683716,1.100000023841858,6.599999904632568,5,128.0,-19344,10.100000381469727,-20,4,7.699999809265137,2,1,12,3.299999952316284,-19344,400,11.109999656677246,1234,1,2.200000047683716,400,5,111,700,3168,1040,1.100000023841858,700,1,4.400000095367432,1700,98,-5,1,2,4,800
3.299999952316284,9,8,-100,15,-100,25,123,3,321,2.200000047683716,5.5,0,12,128.0,7,3,-19342,0,5,2.200000047683716,105,4.400000095367432,9.899999618530273,0,300,1.100000023841858,12.119999885559082,1.100000023841858,8.800000190734863,24,600,105,100,333,600,100,6,0,1000,666,1500,1,0,100,100,0,2.200000047683716,1.100000023841858,6.599999904632568,5,128.0,-19342,10.100000381469727,-18,4,7.699999809265137,2,1,12,3.299999952316284,-19342,400,11.109999656677246,1234,1,2.200000047683716,400,5,111,700,3188,1050,1.100000023841858,700,1,4.400000095367432,1700,100,-5,99,2,4,800
3.299999952316284,9,8,98,15,98,25,123,3,321,2.200000047683716,5.5,0,12,128.0,7,3,-19340,0,5,2.200000047683716,106,4.400000095367432,9.899999618530273,0,300,1.100000023841858,12.119999885559082,1.100000023841858,8.800000190734863,24,600,106,100,333,600,1,6,0,1000,666,1500,1,0,1,-98,0,2.200000047683716,1.100000023841858,6.599999904632568,5,128.0,-19340,10.100000381469727,-16,4,7.699999809265137,2,1,12,3.299999952316284,-19340,400,11.109999656677246,1234,1,2.200000047683716,400,5,111,700,3208,1060,1.100000023841858,700,1,4.400000095367432,1700,-98,-5,98,2,4,800
3.299999952316284,9,8,96,15,96,25,123,3,321,2.200000047683716,5.5,0,12,128.0,7,3,-19338,0,5,2.200000047683716,107,4.400000095367432,9.899999618530273,0,300,1.100000023841858,12.119999885559082,1.100000023841858,8.800000190734863,24,600,107,100,333,600,2,6,0,1000,666,1500,1,0,2,-96,0,2.200000047683716,1.100000023841858,6.599999904632568,5,128.0,-19338,10.100000381469727,-14,4,7.699999809265137,2,1,12,3.299999952316284,-19338,400,11.109999656677246,1234,1,2.200000047683716,400,5,111,700,3228,1070,1.100000023841858,700,1,4.400000095367432,1700,-96,-5,97,2,4,800
3.299999952316284,9,8,94,15,94,25,123,3,321,2.200000047683716,5.5,0,12,128.0,7,3,-19336,0,5,2.200000047683716,108,4.400000095367432,9.899999618530273,0,300,1.100000023841858,12.119999885559082,1.100000023841858,8.800000190734863,24,600,108,100,333,600,3,6,0,1000,666,1500,1,0,3,-94,0,2.200000047683716,1.100000023841858,6.599999904632568,5,128.0,-19336,10.100000381469727,-12,4,7.699999809265137,2,1,12,3.299999952316284,-19336,400,11.109999656677246,1234,1,2.200000047683716,400,5,111,700,3248,1080,1.100000023841858,700,1,4.400000095367432,1700,-94,-5,96,2,4,800
3.299999952316284,9,8,92,15,92,25,123,3,321,2.200000047683716,5.5,0,12,128.0,7,3,-19334,0,5,2.200000047683716,109,4.400000095367432,9.899999618530273,0,300,1.100000023841858,12.119999885559082,1.100000023841858,8.800000190734863,24,600,109,100,333,600,4,6,0,1000,666,1500,1,0,4,-92,0,2.200000047683716,1.100000023841858,6.599999904632568,5,128.0,-19334,10.100000381469727,-10,4,7.699999809265137,2,1,12,3.299999952316284,-19334,400,11.109999656677246,1234,1,2.200000047683716,400,5,111,700,3268,1090,1.100000023841858,700,1,4.400000095367432,1700,-92,-5,95,2,4,800
3.299999952316284,9,8,90,15,90,25,123,3,321,2.200000047683716,5.5,0,12,128.0,7,3,-19332,0,5,2.200000047683716,110,4.400000095367432,9.899999618530273,0,300,1.100000023841858,12.119999885559082,1.100000023841858,8.800000190734863,24,600,110,100,333,600,5,6,0,1000,666,1500,1,0,5,-90,0,2.200000047683716,1.100000023841858,6.599999904632568,5,128.0,-19332,10.100000381469727,-8,4,7.699999809265137,2,1,12,3.299999952316284,-19332,400,11.109999656677246,1234,1,2.200000047683716,400,5,111,700,3288,1100,1.100000023841858,700,1,4.400000095367432,1700,-90,-5,94,2,4,800
3.299999952316284,9,8,88,15,88,25,123,3,321,2.200000047683716,5.5,0,12,128.0,7,3,-19330,0,5,2.200000047683716,111,4.400000095367432,9.899999618530273,0,300,1.100000023841858,12.119999885559082,1.100000023841858,8.800000190734863,24,600,111,100,333,600,6,6,0,1000,666,1500,1,0,6,-88,0,2.200000047683716,1.100000023841858,6.599999904632568,5,128.0,-19330,10.100000381469727,-6,4,7.699999809265137,2,1,12,3.299999952316284,-19330,400,11.109999656677246,1234,1,2.200000047683716,400,5,111,700,3308,1110,1.100000023841858,700,1,4.400000095367432,1700,-88,-5,93,2,4,800
3.299999952316284,9,8,86,15,86,25,123,3,321,2.200000047683716,5.5,0,12,128.0,7,3,-19328,0,5,2.200000047683716,112,4.400000095367432,9.899999618530273,0,300,1.100000023841858,12.119999885559082,1.100000023841858,8.800000190734863,24,600,112,100,333,600,7,6,0,1000,666,1500,1,0,7,-86,0,2.200000047683716,1.100000023841858,6.599999904632568,5,128.0,-19328,10.100000381469727,-4,4,7.699999809265137,2,1,12,3.299999952316284,-19328,400,11.109999656677246,1234,1,2.200000047683716,400,5,111,700,3328,1120,1.100000023841858,700,1,4.400000095367432,1700,-86,-5,92,2,4,800
3.299999952316284,9,8,84,15,84,25,123,3,321,2.200000047683716,5.5,0,12,128.0,7,3,-19326,0,5,2.200000047683716,113,4.400000095367432,9.899999618530273,0,300,1.100000023841858,12.119999885559082,1.100000023841858,8.800000190734863,24,600,113,100,333,600,8,6,0,1000,666,1500,1,0,8,-84,0,2.200000047683716,1.100000023841858,6.599999904632568,5,128.0,-19326,10.100000381469727,-2,4,7.699999809265137,2,1,12,3.299999952316284,-19326,400,11.109999656677246,1234,1,2.200000047683716,400,5,111,700,3348,1130,1.100000023841858,700,1,4.400000095367432,1700,-84,-5,91,2,4,800
3.299999952316284,9,8,82,15,82,25,123,3,321,2.200000047683716,5.5,0,12,128.0,7,3,-19324,0,5,2.200000047683716,114,4.400000095367432,9.899999618530273,0,300,1.100000023841858,12.119999885559082,1.100000023841858,8.800000190734863,24,600,114,100,333,600,9,6,0,1000,666,1500,1,0,9,-82,0,2.200000047683716,1.100000023841858,6.599999904632568,5,128.0,-19324,10.100000381469727,0,4,7.699999809265137,2,1,12,3.299999952316284,-19324,400,11.109999656677246,1234,1,2.200000047683716,400,5,111,700,3368,1140,1.100000023841858,700,1,4.400000095367432,1700,-82,-5,90,2,4,800
3.299999952316284,9,8,80,15,80,25,123,3,321,2.200000047683716,5.5,0,12,128.0,7,3,-19322,0,5,2.200000047683716,115,4.400000095367432,9.899999618530273,0,300,1.100000023841858,12.119999885559082,1.100000023841858,8.800000190734863,24,600,115,100,333,600,10,6,0,1000,666,1500,1,0,10,-80,0,2.200000047683716,1.100000023841858,6.599999904632568,5,128.0,-19322,10.100000381469727,2,4,7.699999809265137,2,1,12,3.299999952316284,-19322,400,11.109999656677246,1234,1,2.200000047683716,400,5,111,700,3388,1150,1.100000023841858,700,1,4.400000095367432,1700,-80,-5,89,2,4,800
3.299999952316284,9,8,78,15,78,25,123,3,321,2.200000047683716,5.5,0,12,128.0,7,3,-19320,0,5,2.200000047683716,116,4.400000095367432,9.899999618530273,0,300,1.100000023841858,12.119999885559082,1.100000023841858,8.800000190734863,24,600,116,100,333,600,11,6,0,1000,666,1500,1,0,11,-78,0,2.200000047683716,1.100000023841858,6.599999904632568,5,128.0,-19320,10.100000381469727,4,4,7.699999809265137,2,1,12,3.299999952316284,-19320,400,11.109999656677246,1234,1,2.200000047683716,400,5,111,700,3408,1160,1.100000023841858,700,1,4.400000095367432,1700,-78,-5,88,2,4,800
3.299999952316284,9,8,76,15,76,25,123,3,321,2.200000047683716,5.5,0,12,128.0,7,3,-19318,0,5,2.200000047683716,117,4.400000095367432,9.899999618530273,0,300,1.100000023841858,12.119999885559082,1.100000023841858,8.800000190734863,24,600,117,100,333,600,12,6,0,1000,666,1500,1,0,12,-76,0,2.200000047683716,1.100000023841858,6.599999904632568,5,128.0,-19318,10.100000381469727,6,4,7.699999809265137,2,1,12,3.299999952316284,-19318,400,11.109999656677246,1234,1,2.200000047683716,400,5,111,700,3428,1170,1.100000023841858,700,1,4.400000095367432,1700,-76,-5,87,2,4,800
3.299999952316284,9,8,74,15,74,25,123,3,321,2.200000047683716,5.5,0,12,128.0,7,3,-19316,0,5,2.200000047683716,118,4.400000095367432,9.899999618530273,0,300,1.100000023841858,12.119999885559082,1.100000023841858,8.800000190734863,24,600,118,100,333,600,13,6,0,1000,666,1500,1,0,13,-74,0,2.200000047683716,1.100000023841858,6.599999904632568,5,128.0,-19316,10.100000381469727,8,4,7.699999809265137,2,1,12,3.299999952316284,-19316,400,11.109999656677246,1234,1,2.200000047683716,400,5,111,700,3448,1180,1.100000023841858,700,1,4.400000095367432,1700,-74,-5,86,2,4,800
3.299999952316284,9,8,72,15,72,25,123,3,321,2.200000047683716,5.5,0,12,128.0,7,3,-19314,0,5,2.200000047683716,119,4.400000095367432,9.899999618530273,0,300,1.100000023841858,12.119999885559082,1.100000023841858,8.800000190734863,24,600,119,100,333,600,14,6,0,1000,666,1500,1,0,14,-72,0,2.200000047683716,1.100000023841858,6.599999904632568,5,128.0,-19314,10.100000381469727,10,4,7.699999809265137,2,1,12,3.299999952316284,-19314,400,11.109999656677246,1234,1,2.200000047683716,400,5,111,700,3468,1190,1.100000023841858,700,1,4.400000095367432,1700,-72,-5,85,2,4,800
3.299999952316284,9,8,70,15,70,25,123,3,321,2.200000047683716,5.5,0,12,128.0,7,3,-19312,0,5,2.200000047683716,120,4.400000095367432,9.899999618530273,0,300,1.100000023841858,12.119999885559082,1.100000023841858,8.800000190734863,24,600,120,100,333,600,15,6,0,1000,666,1500,1,0,15,-70,0,2.200000047683716,1.100000023841858,6.599999904632568,5,128.0,-19312,10.100000381469727,12,4,7.699999809265137,2,1,12,3.299999952316284,-19312,400,11.109999656677246,1234,1,2.200000047683716,400,5,111,700,3488,1200,1.100000023841858,700,1,4.400000095367432,1700,-70,-5,84,2,4,800
3.299999952316284,9,8,68,15,68,25,123,3,321,2.200000047683716,5.5,0,12,128.0,7,3,-19310,0,5,2.200000047683716,121,4.400000095367432,9.899999618530273,0,300,1.100000023841858,12.119999885559082,1.100000023841858,8.800000190734863,24,600,121,100,333,600,16,6,0,1000,666,1500,1,0,16,-68,0,2.200000047683716,1.100000023841858,6.599999904632568,5,128.0,-19310,10.100000381469727,14,4,7.699999809265137,2,1,12,3.299999952316284,-19310,400,11.109999656677246,1234,1,2.200000047683716,400,5,111,700,3508,1210,1.100000023841858,700,1,4.400000095367432,1700,-68,-5,83,2,4,800
3.299999952316284,9,8,66,15,66,25,123,3,321,2.200000047683716,5.5,0,12,128.0,7,3,-19308,0,5,2.200000047683716,122,4.400000095367432,9.899999618530273,0,300,1.100000023841858,12.119999885559082,1.100000023841858,8.800000190734863,24,600,122,100,333,600,17,6,0,1000,666,1500,1,0,17,-66,0,2.200000047683716,1.100000023841858,6.599999904632568,5,128.0,-19308,10.100000381469727,16,4,7.699999809265137,2,1,12,3.299999952316284,-19308,400,11.109999656677246,1234,1,2.200000047683716,400,5,111,700,3528,1220,1.100000023841858,700,1,4.400000095367432,1700,-66,-5,82,2,4,800
3.299999952316284,9,8,64,15,64,25,123,3,321,2.200000047683716,5.5,0,12,128.0,7,3,-19306,0,5,2.200000047683716,123,4.400000095367432,9.899999618530273,0,300,1.100000023841858,12.119999885559082,1.100000023841858,8.800000190734863,24,600,123,100,333,600,18,6,0,1000,666,1500,1,0,18,-64,0,2.200000047683716,1.100000023841858,6.599999904632568,5,128.0,-19306,10.100000381469727,18,4,7.699999809265137,2,1,12,3.299999952316284,-19306,400,11.109999656677246,1234,1,2.200000047683716,400,5,111,700,3548,1230,1.100000023841858,700,1,4.400000095367432,1700,-64,-5,81,2,4,800
3.299999952316284,9,8,62,15,62,25,123,3,321,2.200000047683716,5.5,0,12,128.0,7,3,-19304,0,5,2.200000047683716,124,4.400000095367432,9.899999618530273,0,300,1.100000023841858,12.119999885559082,1.100000023841858,8.800000190734863,24,600,124,100,333,600,19,6,0,1000,666,1500,1,0,19,-62,0,2.200000047683716,1.100000023841858,6.599999904632568,5,128.0,-19304,10.100000381469727,20,4,7.699999809265137,2,1,12,3.299999952316284,-19304,400,11.109999656677246,1234,1,2.200000047683716,400,5,111,700,3568,1240,1.100000023841858,700,1,4.400000095367432,1700,-62,-5,80,2,4,800
3.299999952316284,9,8,60,15,60,25,123,3,321,2.200000047683716,5.5,0,12,128.0,7,3,-19302,0,5,2.200000047683716,125,4.400000095367432,9.899999618530273,0,300,1.100000023841858,12.119999885559082,1.100000023841858,8.800000190734863,24,600,125,100,333,600,20,6,0,1000,666,1500,1,0,20,-60,0,2.200000047683716,1.100000023841858,6.599999904632568,5,128.0,-19302,10.100000381469727,22,4,7.699999809265137,2,1,12,3.299999952316284,-19302,400,11.109999656677246,1234,1,2.200000047683716,400,5,111,700,3588,1250,1.100000023841858,700,1,4.400000095367432,1700,-60,-5,79,2,4,800
3.299999952316284,9,8,58,15,58,25,123,3,321,2.200000047683716,5.5,0,12,128.0,7,3,-19300,0,5,2.200000047683716,126,4.400000095367432,9.899999618530273,0,300,1.100000023841858,12.119999885559082,1.100000023841858,8.800000190734863,24,600,126,100,333,600,21,6,0,1000,666,1500,1,0,21,-58,0,2.200000047683716,1.100000023841858,6.599999904632568,5,128.0,-19300,10.100000381469727,24,4,7.699999809265137,2,1,12,3.299999952316284,-19300,400,11.109999656677246,1234,1,2.200000047683716,400,5,111,700,3608,1260,1.100000023841858,700,1,4.400000095367432,1700,-58,-5,78,2,4,800
3.299999952316284,9,8,56,15,56,25,123,3,321,2.200000047683716,5.5,0,12,128.0,7,3,-19298,0,5,2.200000047683716,127,4.400000095367432,9.899999618530273,0,300,1.100000023841858,12.119999885559082,1.100000023841858,8.800000190734863,24,600,127,100,333,600,22,6,0,1000,666,1500,1,0,22,-56,0,2.200000047683716,1.100000023841858,6.599999904632568,5,128.0,-19298,10.100000381469727,26,4,7.699999809265137,2,1,12,3.299999952316284,-19298,400,11.109999656677246,1234,1,2.200000047683716,400,5,111,700,3628,1270,1.100000023841858,700,1,4.400000095367432,1700,-56,-5,77,2,4,800
3.299999952316284,9,8,54,15,54,25,123,3,321,2.200000047683716,5.5,0,12,128.0,7,3,-19296,0,5,2.200000047683716,128,4.400000095367432,9.899999618530273,0,300,1.100000023841858,12.119999885559082,1.100000023841858,8.800000190734863,24,600,128,100,333,600,23,6,0,1000,666,1500,1,0,23,-54,0,2.200000047683716,1.100000023841858,6.599999904632568,5,128.0,-19296,10.100000381469727,28,4,7.699999809265137,2,1,12,3.299999952316284,-19296,400,11.109999656677246,1234,1,2.200000047683716,400,5,111,700,3648,1280,1.100000023841858,700,1,4.400000095367432,1700,-54,-5,76,2,4,800
3.299999952316284,9,8,52,15,52,25,123,3,321,2.200000047683716,5.5,0,12,128.0,7,3,-19294,0,5,2.200000047683716,129,4.400000095367432,9.899999618530273,0,300,1.100000023841858,12.119999885559082,1.100000023841858,8.800000190734863,24,600,129,100,333,600,24,6,0,1000,666,1500,1,0,24,-52,0,2.200000047683716,1.100000023841858,6.599999904632568,5,128.0,-19294,10.100000381469727,30,4,7.699999809265137,2,1,12,3.299999952316284,-19294,400,11.109999656677246,1234,1,2.200000047683716,400,5,111,700,3668,1290,1.100000023841858,700,1,4.400000095367432,1700,-52,-5,75,2,4,800
3.299999952316284,9,8,50,15,50,25,123,3,321,2.200000047683716,5.5,0,12,128.0,7,3,-19292,0,5,2.200000047683716,130,4.400000095367432,9.899999618530273,0,300,1.100000023841858,12.119999885559082,1.100000023841858,8.800000190734863,24,600,130,100,333,600,25,6,0,1000,666,1500,1,0,25,-50,0,2.200000047683716,1.100000023841858,6.599999904632568,5,128.0,-19292,10.100000381469727,32,4,7.699999809265137,2,1,12,3.299999952316284,-19292,400,11.109999656677246,1234,1,2.200000047683716,400,5,111,700,3688,1300,1.100000023841858,700,1,4.400000095367432,1700,-50,-5,74,2,4,800
3.299999952316284,9,8,48,15,48,25,123,3,321,2.200000047683716,5.5,0,12,128.0,7,3,-19290,0,5,2.200000047683716,131,4.400000095367432,9.899999618530273,0,300,1.100000023841858,12.119999885559082,1.100000023841858,8.800000190734863,24,600,131,100,333,600,26,6,0,1000,666,1500,1,0,26,-48,0,2.200000047683716,1.100000023841858,6.599999904632568,5,128.0,-19290,10.100000381469727,34,4,7.699999809265137,2,1,12,3.299999952316284,-19290,400,11.109999656677246,1234,1,2.200000047683716,400,5,111,700,3708,1310,1.100000023841858,700,1,4.400000095367432,1700,-48,-5,73,2,4,800
3.299999952316284,9,8,46,15,46,25,123,3,321,2.200000047683716,5.5,0,12,128.0,7,3,-19288,0,5,2.200000047683716,132,4.400000095367432,9.899999618530273,0,300,1.100000023841858,12.119999885559082,1.100000023841858,8.800000190734863,24,600,132,100,333,600,27,6,0,1000,666,1500,1,0,27,-46,0,2.200000047683716,1.100000023841858,6.599999904632568,5,128.0,-19288,10.100000381469727,36,4,7.699999809265137,2,1,12,3.299999952316284,-19288,400,11.109999656677246,1234,1,2.200000047683716,400,5,111,700,3728,1320,1.100000023841858,700,1,4.400000095367432,1700,-46,-5,72,2,4,800
3.299999952316284,9,8,44,15,44,25,123,3,321,2.200000047683716,5.5,0,12,128.0,7,3,-19286,0,5,2.200000047683716,133,4.400000095367432,9.899999618530273,0,300,1.100000023841858,12.119999885559082,1.100000023841858,8.800000190734863,24,600,133,100,333,600,28,6,0,1000,666,1500,1,0,28,-44,0,2.200000047683716,1.100000023841858,6.599999904632568,5,128.0,-19286,10.100000381469727,38,4,7.699999809265137,2,1,12,3.299999952316284,-19286,400,11.109999656677246,1234,1,2.200000047683716,400,5,111,700,3748,1330,1.100000023841858,700,1,4.400000095367432,1700,-44,-5,71,2,4,800
3.299999952316284,9,8,42,15,42,25,123,3,321,2.200000047683716,5.5,0,12,128.0,7,3,-19284,0,5,2.200000047683716,134,4.400000095367432,9.899999618530273,0,300,1.100000023841858,12.119999885559082,1.100000023841858,8.800000190734863,24,600,134,100,333,600,29,6,0,1000,666,1500,1,0,29,-42,0,2.200000047683716,1.100000023841858,6.599999904632568,5,128.0,-19284,10.100000381469727,40,4,7.699999809265137,2,1,12,3.299999952316284,-19284,400,11.109999656677246,1234,1,2.200000047683716,400,5,111,700,3768,1340,1.100000023841858,700,1,4.400000095367432,1700,-42,-5,70,2,4,800
3.299999952316284,9,8,40,15,40,25,123,3,321,2.200000047683716,5.5,0,12,128.0,7,3,-19282,0,5,2.200000047683716,135,4.400000095367432,9.899999618530273,0,300,1.100000023841858,12.119999885559082,1.100000023841858,8.800000190734863,24,600,135,100,333,600,30,6,0,1000,666,1500,1,0,30,-40,0,2.200000047683716,1.100000023841858,6.599999904632568,5,128.0,-19282,10.100000381469727,42,4,7.699999809265137,2,1,12,3.299999952316284,-19282,400,11.109999656677246,1234,1,2.200000047683716,400,5,111,700,3788,1350,1.100000023841858,700,1,4.400000095367432,1700,-40,-5,69,2,4,800
3.299999952316284,9,8,38,15,38,25,123,3,321,2.200000047683716,5.5,0,12,128.0,7,3,-19280,0,5,2.200000047683716,136,4.400000095367432,9.899999618530273,0,300,1.100000023841858,12.119999885559082,1.100000023841858,8.800000190734863,24,600,136,100,333,600,31,6,0,1000,666,1500,1,0,31,-38,0,2.200000047683716,1.100000023841858,6.599999904632568,5,128.0,-19280,10.100000381469727,44,4,7.699999809265137,2,1,12,3.299999952316284,-19280,400,11.109999656677246,1234,1,2.200000047683716,400,5,111,700,3808,1360,1.100000023841858,700,1,4.400000095367432,1700,-38,-5,68,2,4,800
3.299999952316284,9,8,36,15,36,25,123,3,321,2.200000047683716,5.5,0,12,128.0,7,3,-19278,0,5,2.200000047683716,137,4.400000095367432,9.899999618530273,0,300,1.100000023841858,12.119999885559082,1.100000023841858,8.800000190734863,24,600,137,100,333,600,32,6,0,1000,666,1500,1,0,32,-36,0,2.200000047683716,1.100000023841858,6.599999904632568,5,128.0,-19278,10.100000381469727,46,4,7.699999809265137,2,1,12,3.299999952316284,-19278,400,11.109999656677246,1234,1,2.200000047683716,400,5,111,700,3828,1370,1.100000023841858,700,1,4.400000095367432,1700,-36,-5,67,2,4,800
3.299999952316284,9,8,34,15,34,25,123,3,321,2.200000047683716,5.5,0,12,128.0,7,3,-19276,0,5,2.200000047683716,138,4.400000095367432,9.899999618530273,0,300,1.100000023841858,12.119999885559082,1.100000023841858,8.800000190734863,24,600,138,100,333,600,33,6,0,1000,666,1500,1,0,33,-34,0,2.200000047683716,1.100000023841858,6.599999904632568,5,128.0,-19276,10.100000381469727,48,4,7.699999809265137,2,1,12,3.299999952316284,-19276,400,11.109999656677246,1234,1,2.200000047683716,400,5,111,700,3848,1380,1.100000023841858,700,1,4.400000095367432,1700,-34,-5,66,2,4,800
3.299999952316284,9,8,32,15,32,25,123,3,321,2.200000047683716,5.5,0,12,128.0,7,3,-19274,0,5,2.200000047683716,139,4.400000095367432,9.899999618530273,0,300,1.100000023841858,12.119999885559082,1.100000023841858,8.800000190734863,24,600,139,100,333,600,34,6,0,1000,666,1500,1,0,34,-32,0,2.200000047683716,1.100000023841858,6.599999904632568,5,128.0,-19274,10.100000381469727,50,4,7.699999809265137,2,1,12,3.299999952316284,-19274,400,11.109999656677246,1234,1,2.200000047683716,400,5,111,700,3868,1390,1.100000023841858,700,1,4.400000095367432,1700,-32,-5,65,2,4,800
3.299999952316284,9,8,30,15,30,25,123,3,321,2.200000047683716,5.5,0,12,128.0,7,3,-19272,0,5,2.200000047683716,140,4.400000095367432,9.899999618530273,0,300,1.100000023841858,12.119999885559082,1.100000023841858,8.800000190734863,24,600,140,100,333,600,35,6,0,1000,666,1500,1,0,35,-30,0,2.200000047683716,1.100000023841858,6.599999904632568,5,128.0,-19272,10.100000381469727,52,4,7.699999809265137,2,1,12,3.299999952316284,-19272,400,11.109999656677246,1234,1,2.200000047683716,400,5,111,700,3888,1400,1.100000023841858,700,1,4.400000095367432,1700,-30,-5,64,2,4,800
3.299999952316284,9,8,28,15,28,25,123,3,321,2.200000047683716,5.5,0,12,128.0,7,3,-19270,0,5,2.200000047683716,141,4.400000095367432,9.899999618530273,0,300,1.100000023841858,12.119999885559082,1.100000023841858,8.800000190734863,24,600,141,100,333,600,36,6,0,1000,666,1500,1,0,36,-28,0,2.200000047683716,1.100000023841858,6.599999904632568,5,128.0,-19270,10.100000381469727,54,4,7.699999809265137,2,1,12,3.299999952316284,-19270,400,11.109999656677246,1234,1,2.200000047683716,400,5,111,700,3908,1410,1.100000023841858,700,1,4.400000095367432,1700,-28,-5,63,2,4,800
3.299999952316284,9,8,26,15,26,25,123,3,321,2.200000047683716,5.5,0,12,128.0,7,3,-19268,0,5,2.200000047683716,142,4.400000095367432,9.899999618530273,0,300,1.100000023841858,12.119999885559082,1.100000023841858,8.800000190734863,24,600,142,100,333,600,37,6,0,1000,666,1500,1,0,37,-26,0,2.200000047683716,1.100000023841858,6.599999904632568,5,128.0,-19268,10.100000381469727,56,4,7.699999809265137,2,1,12,3.299999952316284,-19268,400,11.109999656677246,1234,1,2.200000047683716,400,5,111,700,3928,1420,1.100000023841858,700,1,4.400000095367432,1700,-26,-5,62,2,4,800
3.299999952316284,9,8,24,15,24,25,123,3,321,2.200000047683716,5.5,0,12,128.0,7,3,-19266,0,5,2.200000047683716,143,4.400000095367432,9.899999618530273,0,300,1.100000023841858,12.119999885559082,1.100000023841858,8.800000190734863,24,600,143,100,333,600,38,6,0,1000,666,1500,1,0,38,-24,0,2.200000047683716,1.100000023841858,6.599999904632568,5,128.0,-19266,10.100000381469727,58,4,7.699999809265137,2,1,12,3.299999952316284,-19266,400,11.109999656677246,1234,1,2.200000047683716,400,5,111,700,3948,1430,1.100000023841858,700,1,4.400000095367432,1700,-24,-5,61,2,4,800
3.299999952316284,9,8,22,15,22,25,123,3,321,2.200000047683716,5.5,0,12,128.0,7,3,-19264,0,5,2.200000047683716,144,4.400000095367432,9.899999618530273,0,300,1.100000023841858,12.119999885559082,1.100000023841858,8.800000190734863,24,600,144,100,333,600,39,6,0,1000,666,1500,1,0,39,-22,0,2.200000047683716,1.100000023841858,6.599999904632568,5,128.0,-19264,10.100000381469727,60,4,7.699999809265137,2,1,12,3.299999952316284,-19264,400,11.109999656677246,1234,1,2.200000047683716,400,5,111,700,3968,1440,1.100000023841858,700,1,4.400000095367432,1700,-22,-5,60,2,4,800
3.299999952316284,9,8,20,15,20,25,123,3,321,2.200000047683716,5.5,0,12,128.0,7,3,-19262,0,5,2.200000047683716,145,4.400000095367432,9.899999618530273,0,300,1.100000023841858,12.119999885559082,1.100000023841858,8.800000190734863,24,600,145,100,333,600,40,6,0,1000,666,1500,1,0,40,-20,0,2.200000047683716,1.100000023841858,6.599999904632568,5,128.0,-19262,10.100000381469727,62,4,7.699999809265137,2,1,12,3.299999952316284,-19262,400,11.109999656677246,1234,1,2.200000047683716,400,5,111,700,3988,1450,1.100000023841858,700,1,4.400000095367432,1700,-20,-5,59,2,4,800
3.299999952316284,9,8,18,15,18,25,123,3,321,2.200000047683716,5.5,0,12,128.0,7,3,-19260,0,5,2.200000047683716,146,4.400000095367432,9.899999618530273,0,300,1.100000023841858,12.119999885559082,1.100000023841858,8.800000190734863,24,600,146,100,333,600,41,6,0,1000,666,1500,1,0,41,-18,0,2.200000047683716,1.100000023841858,6.599999904632568,5,128.0,-19260,10.100000381469727,64,4,7.699999809265137,2,1,12,3.299999952316284,-19260,400,11.109999656677246,1234,1,2.200000047683716,400,5,111,700,4008,1460,1.100000023841858,700,1,4.400000095367432,1700,-18,-5,58,2,4,800
3.299999952316284,9,8,16,15,16,25,123,3,321,2.200000047683716,5.5,0,12,128.0,7,3,-19258,0,5,2.200000047683716,147,4.400000095367432,9.899999618530273,0,300,1.100000023841858,12.119999885559082,1.100000023841858,8.800000190734863,24,600,147,100,333,600,42,6,0,1000,666,1500,1,0,42,-16,0,2.200000047683716,1.100000023841858,6.599999904632568,5,128.0,-19258,10.100000381469727,66,4,7.699999809265137,2,1,12,3.299999952316284,-19258,400,11.109999656677246,1234,1,2.200000047683716,400,5,111,700,4028,1470,1.100000023841858,700,1,4.400000095367432,1700,-16,-5,57,2,4,800
3.299999952316284,9,8,14,15,14,25,123,3,321,2.200000047683716,5.5,0,12,128.0,7,3,-19256,0,5,2.200000047683716,148,4.400000095367432,9.899999618530273,0,300,1.100000023841858,12.119999885559082,1.100000023841858,8.800000190734863,24,600,148,100,333,600,43,6,0,1000,666,1500,1,0,43,-14,0,2.200000047683716,1.100000023841858,6.599999904632568,5,128.0,-19256,10.100000381469727,68,4,7.699999809265137,2,1,12,3.299999952316284,-19256,400,11.109999656677246,1234,1,2.200000047683716,400,5,111,700,4048,1480,1.100000023841858,700,1,4.400000095367432,1700,-14,-5,56,2,4,800
3.299999952316284,9,8,12,15,12,25,123,3,321,2.200000047683716,5.5,0,12,128.0,7,3,-19254,0,5,2.200000047683716,149,4.400000095367432,9.899999618530273,0,300,1.100000023841858,12.119999885559082,1.100000023841858,8.800000190734863,24,600,149,100,333,600,44,6,0,1000,666,1500,1,0,44,-12,0,2.200000047683716,1.100000023841858,6.599999904632568,5,128.0,-19254,10.100000381469727,70,4,7.699999809265137,2,1,12,3.299999952316284,-19254,400,11.109999656677246,1234,1,2.200000047683716,400,5,111,700,4068,1490,1.100000023841858,700,1,4.400000095367432,1700,-12,-5,55,2,4,800
3.299999952316284,9,8,10,15,10,25,123,3,321,2.200000047683716,5.5,0,12,128.0,7,3,-19252,0,5,2.200000047683716,150,4.400000095367432,9.899999618530273,0,300,1.100000023841858,12.119999885559082,1.100000023841858,8.800000190734863,24,600,150,100,333,600,45,6,0,1000,666,1500,1,0,45,-10,0,2.200000047683716,1.100000023841858,6.599999904632568,5,128.0,-19252,10.100000381469727,72,4,7.699999809265137,2,1,12,3.299999952316284,-19252,400,11.109999656677246,1234,1,2.200000047683716,400,5,111,700,4088,1500,1.100000023841858,700,1,4.400000095367432,1700,-10,-5,54,2,4,800
3.299999952316284,9,8,8,15,8,25,123,3,321,2.200000047683716,5.5,0,12,128.0,7,3,-19250,0,5,2.200000047683716,151,4.400000095367432,9.899999618530273,0,300,1.100000023841858,12.119999885559082,1.100000023841858,8.800000190734863,24,600,151,100,333,600,46,6,0,1000,666,1500,1,0,46,-8,0,2.200000047683716,1.100000023841858,6.599999904632568,5,128.0,-19250,10.100000381469727,74,4,7.699999809265137,2,1,12,3.299999952316284,-19250,400,11.109999656677246,1234,1,2.200000047683716,400,5,111,700,4108,1510,1.100000023841858,700,1,4.400000095367432,1700,-8,-5,53,2,4,800
3.299999952316284,9,8,6,15,6,25,123,3,321,2.200000047683716,5.5,0,12,128.0,7,3,-19248,0,5,2.200000047683716,152,4.400000095367432,9.899999618530273,0,300,1.100000023841858,12.119999885559082,1.100000023841858,8.800000190734863,24,600,152,100,333,600,47,6,0,1000,666,1500,1,0,47,-6,0,2.200000047683716,1.100000023841858,6.599999904632568,5,128.0,-19248,10.100000381469727,76,4,7.699999809265137,2,1,12,3.299999952316284,-19248,400,11.109999656677246,1234,1,2.200000047683716,400,5,111,700,4128,1520,1.100000023841858,700,1,4.400000095367432,1700,-6,-5,52,2,4,800
3.299999952316284,9,8,4,15,4,25,123,3,321,2.200000047683716,5.5,0,12,128.0,7,3,-19246,0,5,2.200000047683716,153,4.400000095367432,9.899999618530273,0,300,1.100000023841858,12.119999885559082,1.100000023841858,8.800000190734863,24,600,153,100,333,600,48,6,0,1000,666,1500,1,0,48,-4,0,2.200000047683716,1.100000023841858,6.599999904632568,5,128.0,-19246,10.100000381469727,78,4,7.699999809265137,2,1,12,3.299999952316284,-19246,400,11.109999656677246,1234,1,2.200000047683716,400,5,111,700,4148,1530,1.100000023841858,700,1,4.400000095367432,1700,-4,-5,51,2,4,800
3.299999952316284,9,8,2,15,2,25,123,3,321,2.200000047683716,5.5,0,12,128.0,7,3,-19244,0,5,2.200000047683716,154,4.400000095367432,9.899999618530273,0,300,1.100000023841858,12.119999885559082,1.100000023841858,8.800000190734863,24,600,154,100,333,600,49,6,0,1000,666,1500,1,0,49,-2,0,2.200000047683716,1.100000023841858,6.599999904632568,5,128.0,-19244,10.100000381469727,80,4,7.699999809265137,2,1,12,3.299999952316284,-19244,400,11.109999656677246,1234,1,2.200000047683716,400,5,111,700,4168,1540,1.100000023841858,700,1,4.400000095367432,1700,-2,-5,50,2,4,800
3.299999952316284,9,8,-2,15,-2,25,123,3,321,2.200000047683716,5.5,0,12,128.0,7,3,-19242,0,5,2.200000047683716,155,4.400000095367432,9.899999618530273,0,300,1.100000023841858,12.119999885559082,1.100000023841858,8.800000190734863,24,600,155,100,333,600,50,6,0,1000,666,1500,1,0,50,2,0,2.200000047683716,1.100000023841858,6.599999904632568,5,128.0,-19242,10.100000381469727,82,4,7.699999809265137,2,1,12,3.299999952316284,-19242,400,11.109999656677246,1234,1,2.200000047683716,400,5,111,700,4188,1550,1.100000023841858,700,1,4.400000095367432,1700,2,-5,49,2,4,800
3.299999952316284,9,8,-4,15,-4,25,123,3,321,2.200000047683716,5.5,0,12,128.0,7,3,-19240,0,5,2.200000047683716,156,4.400000095367432,9.899999618530273,0,300,1.100000023841858,12.119999885559082,1.100000023841858,8.800000190734863,24,600,156,100,333,600,51,6,0,1000,666,1500,1,0,51,4,0,2.200000047683716,1.100000023841858,6.599999904632568,5,128.0,-19240,10.100000381469727,84,4,7.699999809265137,2,1,12,3.299999952316284,-19240,400,11.109999656677246,1234,1,2.200000047683716,400,5,111,700,4208,1560,1.100000023841858,700,1,4.400000095367432,1700,4,-5,48,2,4,800
3.299999952316284,9,8,-6,15,-6,25,123,3,321,2.200000047683716,5.5,0,12,128.0,7,3,-19238,0,5,2.200000047683716,157,4.400000095367432,9.899999618530273,0,300,1.100000023841858,12.119999885559082,1.100000023841858,8.800000190734863,24,600,157,100,333,600,52,6,0,1000,666,1500,1,0,52,6,0,2.200000047683716,1.100000023841858,6.599999904632568,5,128.0,-19238,10.100000381469727,86,4,7.699999809265137,2,1,12,3.299999952316284,-19238,400,11.109999656677246,1234,1,2.200000047683716,400,5,111,700,4228,1570,1.100000023841858,700,1,4.400000095367432,1700,6,-5,47,2,4,800
3.299999952316284,9,8,-8,15,-8,25,123,3,321,2.200000047683716,5.5,0,12,128.0,7,3,-19236,0,5,2.200000047683716,158,4.400000095367432,9.899999618530273,0,300,1.100000023841858,12.119999885559082,1.100000023841858,8.800000190734863,24,600,158,100,333,600,53,6,0,1000,666,1500,1,0,53,8,0,2.200000047683716,1.100000023841858,6.599999904632568,5,128.0,-19236,10.100000381469727,88,4,7.699999809265137,2,1,12,3.299999952316284,-19236,400,11.109999656677246,1234,1,2.200000047683716,400,5,111,700,4248,1580,1.100000023841858,700,1,4.400000095367432,1700,8,-5,46,2,4,800
3.299999952316284,9,8,-10,15,-10,25,123,3,321,2.200000047683716,5.5,0,12,128.0,7,3,-19234,0,5,2.200000047683716,159,4.400000095367432,9.899999618530273,0,300,1.100000023841858,12.119999885559082,1.100000023841858,8.800000190734863,24,600,159,100,333,600,54,6,0,1000,666,1500,1,0,54,10,0,2.200000047683716,1.100000023841858,6.599999904632568,5,128.0,-19234,10.100000381469727,90,4,7.699999809265137,2,1,12,3.299999952316284,-19234,400,11.109999656677246,1234,1,2.200000047683716,400,5,111,700,4268,1590,1.100000023841858,700,1,4.400000095367432,1700,10,-5,45,2,4,800
