MagZ,MagY,EscFeedbackLeftVoltage,EscFeedbackRightVoltage,AccY,GPSLat,EscFeedbackLeftRpm,RC_channel[0],EscFeedbackRightRpm,Datarpy[1],AnalogRssi,StatusSensor,MotorSetpointLmotor,RightActuatorsCommandServo,RCN[0],AttitudeRoll,Comp_gpsDist,ServoAngleRServoAngle,RightActuatorsCommandNewtons,RightActuatorsCommandSpeed,AnalogVbat,EscFeedbackRightCurrent,GPSNumsats,RC_channel[6],DataVelocity[2],Datadrpy[2],DataPosition[1],DataPosition[2],RC_channel[8],AttitudePitch,RC_channel[10],Debug[2],StatusCycleTime,RCN[6],RCN[2],GyrZ,Datadrpy[1],AnalogPower,AltitudeVario,StatusGccs,Debug[3],StatusFlag,GPSGGC,RCN[1],StatusNumi2cerror,Datarpy[0],GPSVeloc,RC_channel[2],EscFeedbackLeftCurrent,DataVelocity[1],Datadrpy[0],LeftActuatorsCommandServo,GPSAlt,DataVelocity[0],Comp_gpsDirection,LeftActuatorsCommandSpeed,DataPosition[0],AltitudeAlt,AccX,RCN[4],MotorSetpointRmotor,Datarpy[2],RC_channel[11],Comp_gpsUpdate,AnalogCurrent,GPSFix,RC_channel[7],ServoAngleLServoAngle,RC_channel[4],AccZ,RC_channel[9],AttitudeYaw,GPSLong,RC_channel[1],GyrY,Debug[0],MagX,RC_channel[3],RCN[3],LeftActuatorsCommandNewtons,RCN[5],Debug[1],GyrX,RC_channel[5]
9,8,3.299999952316284,4.400000095367432,2,25,123,600,321,2.200000047683716,-25372,0,12,128.0,-72,-22,-25372,-5,1.100000023841858,2.200000047683716,15,2.200000047683716,5,300,12.119999885559082,6.599999904632568,8.800000190734863,9.899999618530273,600,-22,100,3,0,86,-72,6,5.5,0,333,111,4,0,0,72,0,1.100000023841858,8424,1000,1.100000023841858,11.109999656677246,4.400000095367432,128.0,-25372,10.100000381469727,72,2.200000047683716,7.699999809265137,666,1,86,12,3.299999952316284,400,1,1234,1,400,5,1500,3,700,-220,24,700,5,1,7,1700,72,1.100000023841858,14,2,4,800
9,8,3.299999952316284,4.400000095367432,2,25,123,600,321,2.200000047683716,-25370,0,12,128.0,-74,-21,-25370,-5,1.100000023841858,2.200000047683716,15,2.200000047683716,5,300,12.119999885559082,6.599999904632568,8.800000190734863,9.899999618530273,600,-21,100,3,0,87,-74,6,5.5,0,333,111,4,0,0,74,0,1.100000023841858,8444,1000,1.100000023841858,11.109999656677246,4.400000095367432,128.0,-25370,10.100000381469727,74,2.200000047683716,7.699999809265137,666,1,87,12,3.299999952316284,400,1,1234,1,400,5,1500,3,700,-210,24,700,5,1,7,1700,74,1.100000023841858,13,2,4,800
9,8,3.299999952316284,4.400000095367432,2,25,123,600,321,2.200000047683716,-25368,0,12,128.0,-76,-20,-25368,-5,1.100000023841858,2.200000047683716,15,2.200000047683716,5,300,12.119999885559082,6.599999904632568,8.800000190734863,9.899999618530273,600,-20,100,3,0,88,-76,6,5.5,0,333,111,4,0,0,76,0,1.100000023841858,8464,1000,1.100000023841858,11.109999656677246,4.400000095367432,128.0,-25368,10.100000381469727,76,2.200000047683716,7.699999809265137,666,1,88,12,3.299999952316284,400,1,1234,1,400,5,1500,3,700,-200,24,700,5,1,7,1700,76,1.100000023841858,12,2,4,800
9,8,3.299999952316284,4.400000095367432,2,25,123,600,321,2.200000047683716,-25366,0,12,128.0,-78,-19,-25366,-5,1.100000023841858,2.200000047683716,15,2.200000047683716,5,300,12.119999885559082,6.599999904632568,8.800000190734863,9.899999618530273,600,-19,100,3,0,89,-78,6,5.5,0,333,111,4,0,0,78,0,1.100000023841858,8484,1000,1.100000023841858,11.109999656677246,4.400000095367432,128.0,-25366,10.100000381469727,78,2.200000047683716,7.699999809265137,666,1,89,12,3.299999952316284,400,1,1234,1,400,5,1500,3,700,-190,24,700,5,1,7,1700,78,1.100000023841858,11,2,4,800
9,8,3.299999952316284,4.400000095367432,2,25,123,600,321,2.200000047683716,-25364,0,12,128.0,-80,-18,-25364,-5,1.100000023841858,2.200000047683716,15,2.200000047683716,5,300,12.119999885559082,6.599999904632568,8.800000190734863,9.899999618530273,600,-18,100,3,0,90,-80,6,5.5,0,333,111,4,0,0,80,0,1.100000023841858,8504,1000,1.100000023841858,11.109999656677246,4.400000095367432,128.0,-25364,10.100000381469727,80,2.200000047683716,7.699999809265137,666,1,90,12,3.299999952316284,400,1,1234,1,400,5,1500,3,700,-180,24,700,5,1,7,1700,80,1.100000023841858,10,2,4,800
9,8,3.299999952316284,4.400000095367432,2,25,123,600,321,2.200000047683716,-25362,0,12,128.0,-82,-17,-25362,-5,1.100000023841858,2.200000047683716,15,2.200000047683716,5,300,12.119999885559082,6.599999904632568,8.800000190734863,9.899999618530273,600,-17,100,3,0,91,-82,6,5.5,0,333,111,4,0,0,82,0,1.100000023841858,8524,1000,1.100000023841858,11.109999656677246,4.400000095367432,128.0,-25362,10.100000381469727,82,2.200000047683716,7.699999809265137,666,1,91,12,3.299999952316284,400,1,1234,1,400,5,1500,3,700,-170,24,700,5,1,7,1700,82,1.100000023841858,9,2,4,800
9,8,3.299999952316284,4.400000095367432,2,25,123,600,321,2.200000047683716,-25360,0,12,128.0,-84,-16,-25360,-5,1.100000023841858,2.200000047683716,15,2.200000047683716,5,300,12.119999885559082,6.599999904632568,8.800000190734863,9.899999618530273,600,-16,100,3,0,92,-84,6,5.5,0,333,111,4,0,0,84,0,1.100000023841858,8544,1000,1.100000023841858,11.109999656677246,4.400000095367432,128.0,-25360,10.100000381469727,84,2.200000047683716,7.699999809265137,666,1,92,12,3.299999952316284,400,1,1234,1,400,5,1500,3,700,-160,24,700,5,1,7,1700,84,1.100000023841858,8,2,4,800
9,8,3.299999952316284,4.400000095367432,2,25,123,600,321,2.200000047683716,-25358,0,12,128.0,-86,-15,-25358,-5,1.100000023841858,2.200000047683716,15,2.200000047683716,5,300,12.119999885559082,6.599999904632568,8.800000190734863,9.899999618530273,600,-15,100,3,0,93,-86,6,5.5,0,333,111,4,0,0,86,0,1.100000023841858,8564,1000,1.100000023841858,11.109999656677246,4.400000095367432,128.0,-25358,10.100000381469727,86,2.200000047683716,7.699999809265137,666,1,93,12,3.299999952316284,400,1,1234,1,400,5,1500,3,700,-150,24,700,5,1,7,1700,86,1.100000023841858,7,2,4,800
9,8,3.299999952316284,4.400000095367432,2,25,123,600,321,2.200000047683716,-25356,0,12,128.0,-88,-14,-25356,-5,1.100000023841858,2.200000047683716,15,2.200000047683716,5,300,12.119999885559082,6.599999904632568,8.800000190734863,9.899999618530273,600,-14,100,3,0,94,-88,6,5.5,0,333,111,4,0,0,88,0,1.100000023841858,8584,1000,1.100000023841858,11.109999656677246,4.400000095367432,128.0,-25356,10.100000381469727,88,2.200000047683716,7.699999809265137,666,1,94,12,3.299999952316284,400,1,1234,1,400,5,1500,3,700,-140,24,700,5,1,7,1700,88,1.100000023841858,6,2,4,800
9,8,3.299999952316284,4.400000095367432,2,25,123,600,321,2.200000047683716,-25354,0,12,128.0,-90,-13,-25354,-5,1.100000023841858,2.200000047683716,15,2.200000047683716,5,300,12.119999885559082,6.599999904632568,8.800000190734863,9.899999618530273,600,-13,100,3,0,95,-90,6,5.5,0,333,111,4,0,0,90,0,1.100000023841858,8604,1000,1.100000023841858,11.109999656677246,4.400000095367432,128.0,-25354,10.100000381469727,90,2.200000047683716,7.699999809265137,666,1,95,12,3.299999952316284,400,1,1234,1,400,5,1500,3,700,-130,24,700,5,1,7,1700,90,1.100000023841858,5,2,4,800
9,8,3.299999952316284,4.400000095367432,2,25,123,600,321,2.200000047683716,-25352,0,12,128.0,-92,-12,-25352,-5,1.100000023841858,2.200000047683716,15,2.200000047683716,5,300,12.119999885559082,6.599999904632568,8.800000190734863,9.899999618530273,600,-12,100,3,0,96,-92,6,5.5,0,333,111,4,0,0,92,0,1.100000023841858,8624,1000,1.100000023841858,11.109999656677246,4.400000095367432,128.0,-25352,10.100000381469727,92,2.200000047683716,7.699999809265137,666,1,96,12,3.299999952316284,400,1,1234,1,400,5,1500,3,700,-120,24,700,5,1,7,1700,92,1.100000023841858,4,2,4,800
9,8,3.299999952316284,4.400000095367432,2,25,123,600,321,2.200000047683716,-25350,0,12,128.0,-94,-11,-25350,-5,1.100000023841858,2.200000047683716,15,2.200000047683716,5,300,12.119999885559082,6.599999904632568,8.800000190734863,9.899999618530273,600,-11,100,3,0,97,-94,6,5.5,0,333,111,4,0,0,94,0,1.100000023841858,8644,1000,1.100000023841858,11.109999656677246,4.400000095367432,128.0,-25350,10.100000381469727,94,2.200000047683716,7.699999809265137,666,1,97,12,3.299999952316284,400,1,1234,1,400,5,1500,3,700,-110,24,700,5,1,7,1700,94,1.100000023841858,3,2,4,800
9,8,3.299999952316284,4.400000095367432,2,25,123,600,321,2.200000047683716,-25348,0,12,128.0,-96,-10,-25348,-5,1.100000023841858,2.200000047683716,15,2.200000047683716,5,300,12.119999885559082,6.599999904632568,8.800000190734863,9.899999618530273,600,-10,100,3,0,98,-96,6,5.5,0,333,111,4,0,0,96,0,1.100000023841858,8664,1000,1.100000023841858,11.109999656677246,4.400000095367432,128.0,-25348,10.100000381469727,96,2.200000047683716,7.699999809265137,666,1,98,12,3.299999952316284,400,1,1234,1,400,5,1500,3,700,-100,24,700,5,1,7,1700,96,1.100000023841858,2,2,4,800
9,8,3.299999952316284,4.400000095367432,2,25,123,600,321,2.200000047683716,-25346,0,12,128.0,-98,-9,-25346,-5,1.100000023841858,2.200000047683716,15,2.200000047683716,5,300,12.119999885559082,6.599999904632568,8.800000190734863,9.899999618530273,600,-9,100,3,0,99,-98,6,5.5,0,333,111,4,0,0,98,0,1.100000023841858,8684,1000,1.100000023841858,11.109999656677246,4.400000095367432,128.0,-25346,10.100000381469727,98,2.200000047683716,7.699999809265137,666,1,99,12,3.299999952316284,400,1,1234,1,400,5,1500,3,700,-90,24,700,5,1,7,1700,98,1.100000023841858,1,2,4,800
9,8,3.299999952316284,4.400000095367432,2,25,123,600,321,2.200000047683716,-25344,0,12,128.0,-100,-8,-25344,-5,1.100000023841858,2.200000047683716,15,2.200000047683716,5,300,12.119999885559082,6.599999904632568,8.800000190734863,9.899999618530273,600,-8,100,3,0,100,-100,6,5.5,0,333,111,4,0,0,100,0,1.100000023841858,8704,1000,1.100000023841858,11.109999656677246,4.400000095367432,128.0,-25344,10.100000381469727,100,2.200000047683716,7.699999809265137,666,1,100,12,3.299999952316284,400,1,1234,1,400,5,1500,3,700,-80,24,700,5,1,7,1700,100,1.100000023841858,99,2,4,800
9,8,3.299999952316284,4.400000095367432,2,25,123,600,321,2.200000047683716,-25342,0,12,128.0,98,-7,-25342,-5,1.100000023841858,2.200000047683716,15,2.200000047683716,5,300,12.119999885559082,6.599999904632568,8.800000190734863,9.899999618530273,600,-7,100,3,0,1,98,6,5.5,0,333,111,4,0,0,-98,0,1.100000023841858,8724,1000,1.100000023841858,11.109999656677246,4.400000095367432,128.0,-25342,10.100000381469727,102,2.200000047683716,7.699999809265137,666,1,1,12,3.299999952316284,400,1,1234,1,400,5,1500,3,700,-70,24,700,5,1,7,1700,-98,1.100000023841858,98,2,4,800
9,8,3.299999952316284,4.400000095367432,2,25,123,600,321,2.200000047683716,-25340,0,12,128.0,96,-6,-25340,-5,1.100000023841858,2.200000047683716,15,2.200000047683716,5,300,12.119999885559082,6.599999904632568,8.800000190734863,9.899999618530273,600,-6,100,3,0,2,96,6,5.5,0,333,111,4,0,0,-96,0,1.100000023841858,8744,1000,1.100000023841858,11.109999656677246,4.400000095367432,128.0,-25340,10.100000381469727,104,2.200000047683716,7.699999809265137,666,1,2,12,3.299999952316284,400,1,1234,1,400,5,1500,3,700,-60,24,700,5,1,7,1700,-96,1.100000023841858,97,2,4,800
9,8,3.299999952316284,4.400000095367432,2,25,123,600,321,2.200000047683716,-25338,0,12,128.0,94,-5,-25338,-5,1.100000023841858,2.200000047683716,15,2.200000047683716,5,300,12.119999885559082,6.599999904632568,8.800000190734863,9.899999618530273,600,-5,100,3,0,3,94,6,5.5,0,333,111,4,0,0,-94,0,1.100000023841858,8764,1000,1.100000023841858,11.109999656677246,4.400000095367432,128.0,-25338,10.100000381469727,106,2.200000047683716,7.699999809265137,666,1,3,12,3.299999952316284,400,1,1234,1,400,5,1500,3,700,-50,24,700,5,1,7,1700,-94,1.100000023841858,96,2,4,800
9,8,3.299999952316284,4.400000095367432,2,25,123,600,321,2.200000047683716,-25336,0,12,128.0,92,-4,-25336,-5,1.100000023841858,2.200000047683716,15,2.200000047683716,5,300,12.119999885559082,6.599999904632568,8.800000190734863,9.899999618530273,600,-4,100,3,0,4,92,6,5.5,0,333,111,4,0,0,-92,0,1.100000023841858,8784,1000,1.100000023841858,11.109999656677246,4.400000095367432,128.0,-25336,10.100000381469727,108,2.200000047683716,7.699999809265137,666,1,4,12,3.299999952316284,400,1,1234,1,400,5,1500,3,700,-40,24,700,5,1,7,1700,-92,1.100000023841858,95,2,4,800
9,8,3.299999952316284,4.400000095367432,2,25,123,600,321,2.200000047683716,-25334,0,12,128.0,90,-3,-25334,-5,1.100000023841858,2.200000047683716,15,2.200000047683716,5,300,12.119999885559082,6.599999904632568,8.800000190734863,9.899999618530273,600,-3,100,3,0,5,90,6,5.5,0,333,111,4,0,0,-90,0,1.100000023841858,8804,1000,1.100000023841858,11.109999656677246,4.400000095367432,128.0,-25334,10.100000381469727,110,2.200000047683716,7.699999809265137,666,1,5,12,3.299999952316284,400,1,1234,1,400,5,1500,3,700,-30,24,700,5,1,7,1700,-90,1.100000023841858,94,2,4,800
9,8,3.299999952316284,4.400000095367432,2,25,123,600,321,2.200000047683716,-25332,0,12,128.0,88,-2,-25332,-5,1.100000023841858,2.200000047683716,15,2.200000047683716,5,300,12.119999885559082,6.599999904632568,8.800000190734863,9.899999618530273,600,-2,100,3,0,6,88,6,5.5,0,333,111,4,0,0,-88,0,1.100000023841858,8824,1000,1.100000023841858,11.109999656677246,4.400000095367432,128.0,-25332,10.100000381469727,112,2.200000047683716,7.699999809265137,666,1,6,12,3.299999952316284,400,1,1234,1,400,5,1500,3,700,-20,24,700,5,1,7,1700,-88,1.100000023841858,93,2,4,800
9,8,3.299999952316284,4.400000095367432,2,25,123,600,321,2.200000047683716,-25330,0,12,128.0,86,-1,-25330,-5,1.100000023841858,2.200000047683716,15,2.200000047683716,5,300,12.119999885559082,6.599999904632568,8.800000190734863,9.899999618530273,600,-1,100,3,0,7,86,6,5.5,0,333,111,4,0,0,-86,0,1.100000023841858,8844,1000,1.100000023841858,11.109999656677246,4.400000095367432,128.0,-25330,10.100000381469727,114,2.200000047683716,7.699999809265137,666,1,7,12,3.299999952316284,400,1,1234,1,400,5,1500,3,700,-10,24,700,5,1,7,1700,-86,1.100000023841858,92,2,4,800
9,8,3.299999952316284,4.400000095367432,2,25,123,600,321,2.200000047683716,-25328,0,12,128.0,84,0,-25328,-5,1.100000023841858,2.200000047683716,15,2.200000047683716,5,300,12.119999885559082,6.599999904632568,8.800000190734863,9.899999618530273,600,0,100,3,0,8,84,6,5.5,0,333,111,4,0,0,-84,0,1.100000023841858,8864,1000,1.100000023841858,11.109999656677246,4.400000095367432,128.0,-25328,10.100000381469727,116,2.200000047683716,7.699999809265137,666,1,8,12,3.299999952316284,400,1,1234,1,400,5,1500,3,700,0,24,700,5,1,7,1700,-84,1.100000023841858,91,2,4,800
9,8,3.299999952316284,4.400000095367432,2,25,123,600,321,2.200000047683716,-25326,0,12,128.0,82,1,-25326,-5,1.100000023841858,2.200000047683716,15,2.200000047683716,5,300,12.119999885559082,6.599999904632568,8.800000190734863,9.899999618530273,600,1,100,3,0,9,82,6,5.5,0,333,111,4,0,0,-82,0,1.100000023841858,8884,1000,1.100000023841858,11.109999656677246,4.400000095367432,128.0,-25326,10.100000381469727,118,2.200000047683716,7.699999809265137,666,1,9,12,3.299999952316284,400,1,1234,1,400,5,1500,3,700,10,24,700,5,1,7,1700,-82,1.100000023841858,90,2,4,800
9,8,3.299999952316284,4.400000095367432,2,25,123,600,321,2.200000047683716,-25324,0,12,128.0,80,2,-25324,-5,1.100000023841858,2.200000047683716,15,2.200000047683716,5,300,12.119999885559082,6.599999904632568,8.800000190734863,9.899999618530273,600,2,100,3,0,10,80,6,5.5,0,333,111,4,0,0,-80,0,1.100000023841858,8904,1000,1.100000023841858,11.109999656677246,4.400000095367432,128.0,-25324,10.100000381469727,120,2.200000047683716,7.699999809265137,666,1,10,12,3.299999952316284,400,1,1234,1,400,5,1500,3,700,20,24,700,5,1,7,1700,-80,1.100000023841858,89,2,4,800
9,8,3.299999952316284,4.400000095367432,2,25,123,600,321,2.200000047683716,-25322,0,12,128.0,78,3,-25322,-5,1.100000023841858,2.200000047683716,15,2.200000047683716,5,300,12.119999885559082,6.599999904632568,8.800000190734863,9.899999618530273,600,3,100,3,0,11,78,6,5.5,0,333,111,4,0,0,-78,0,1.100000023841858,8924,1000,1.100000023841858,11.109999656677246,4.400000095367432,128.0,-25322,10.100000381469727,122,2.200000047683716,7.699999809265137,666,1,11,12,3.299999952316284,400,1,1234,1,400,5,1500,3,700,30,24,700,5,1,7,1700,-78,1.100000023841858,88,2,4,800
9,8,3.299999952316284,4.400000095367432,2,25,123,600,321,2.200000047683716,-25320,0,12,128.0,76,4,-25320,-5,1.100000023841858,2.200000047683716,15,2.200000047683716,5,300,12.119999885559082,6.599999904632568,8.800000190734863,9.899999618530273,600,4,100,3,0,12,76,6,5.5,0,333,111,4,0,0,-76,0,1.100000023841858,8944,1000,1.100000023841858,11.109999656677246,4.400000095367432,128.0,-25320,10.100000381469727,124,2.200000047683716,7.699999809265137,666,1,12,12,3.299999952316284,400,1,1234,1,400,5,1500,3,700,40,24,700,5,1,7,1700,-76,1.100000023841858,87,2,4,800
9,8,3.299999952316284,4.400000095367432,2,25,123,600,321,2.200000047683716,-25318,0,12,128.0,74,5,-25318,-5,1.100000023841858,2.200000047683716,15,2.200000047683716,5,300,12.119999885559082,6.599999904632568,8.800000190734863,9.899999618530273,600,5,100,3,0,13,74,6,5.5,0,333,111,4,0,0,-74,0,1.100000023841858,8964,1000,1.100000023841858,11.109999656677246,4.400000095367432,128.0,-25318,10.100000381469727,126,2.200000047683716,7.699999809265137,666,1,13,12,3.299999952316284,400,1,1234,1,400,5,1500,3,700,50,24,700,5,1,7,1700,-74,1.100000023841858,86,2,4,800
9,8,3.299999952316284,4.400000095367432,2,25,123,600,321,2.200000047683716,-25316,0,12,128.0,72,6,-25316,-5,1.100000023841858,2.200000047683716,15,2.200000047683716,5,300,12.119999885559082,6.599999904632568,8.800000190734863,9.899999618530273,600,6,100,3,0,14,72,6,5.5,0,333,111,4,0,0,-72,0,1.100000023841858,8984,1000,1.100000023841858,11.109999656677246,4.400000095367432,128.0,-25316,10.100000381469727,128,2.200000047683716,7.699999809265137,666,1,14,12,3.299999952316284,400,1,1234,1,400,5,1500,3,700,60,24,700,5,1,7,1700,-72,1.100000023841858,85,2,4,800
9,8,3.299999952316284,4.400000095367432,2,25,123,600,321,2.200000047683716,-25314,0,12,128.0,70,7,-25314,-5,1.100000023841858,2.200000047683716,15,2.200000047683716,5,300,12.119999885559082,6.599999904632568,8.800000190734863,9.899999618530273,600,7,100,3,0,15,70,6,5.5,0,333,111,4,0,0,-70,0,1.100000023841858,9004,1000,1.100000023841858,11.109999656677246,4.400000095367432,128.0,-25314,10.100000381469727,130,2.200000047683716,7.699999809265137,666,1,15,12,3.299999952316284,400,1,1234,1,400,5,1500,3,700,70,24,700,5,1,7,1700,-70,1.100000023841858,84,2,4,800
9,8,3.299999952316284,4.400000095367432,2,25,123,600,321,2.200000047683716,-25312,0,12,128.0,68,8,-25312,-5,1.100000023841858,2.200000047683716,15,2.200000047683716,5,300,12.119999885559082,6.599999904632568,8.800000190734863,9.899999618530273,600,8,100,3,0,16,68,6,5.5,0,333,111,4,0,0,-68,0,1.100000023841858,9024,1000,1.100000023841858,11.109999656677246,4.400000095367432,128.0,-25312,10.100000381469727,132,2.200000047683716,7.699999809265137,666,1,16,12,3.299999952316284,400,1,1234,1,400,5,1500,3,700,80,24,700,5,1,7,1700,-68,1.100000023841858,83,2,4,800
9,8,3.299999952316284,4.400000095367432,2,25,123,600,321,2.200000047683716,-25310,0,12,128.0,66,9,-25310,-5,1.100000023841858,2.200000047683716,15,2.200000047683716,5,300,12.119999885559082,6.599999904632568,8.800000190734863,9.899999618530273,600,9,100,3,0,17,66,6,5.5,0,333,111,4,0,0,-66,0,1.100000023841858,9044,1000,1.100000023841858,11.109999656677246,4.400000095367432,128.0,-25310,10.100000381469727,134,2.200000047683716,7.699999809265137,666,1,17,12,3.299999952316284,400,1,1234,1,400,5,1500,3,700,90,24,700,5,1,7,1700,-66,1.100000023841858,82,2,4,800
9,8,3.299999952316284,4.400000095367432,2,25,123,600,321,2.200000047683716,-25308,0,12,128.0,64,10,-25308,-5,1.100000023841858,2.200000047683716,15,2.200000047683716,5,300,12.119999885559082,6.599999904632568,8.800000190734863,9.899999618530273,600,10,100,3,0,18,64,6,5.5,0,333,111,4,0,0,-64,0,1.100000023841858,9064,1000,1.100000023841858,11.109999656677246,4.400000095367432,128.0,-25308,10.100000381469727,136,2.200000047683716,7.699999809265137,666,1,18,12,3.299999952316284,400,1,1234,1,400,5,1500,3,700,100,24,700,5,1,7,1700,-64,1.100000023841858,81,2,4,800
9,8,3.299999952316284,4.400000095367432,2,25,123,600,321,2.200000047683716,-25306,0,12,128.0,62,11,-25306,-5,1.100000023841858,2.200000047683716,15,2.200000047683716,5,300,12.119999885559082,6.599999904632568,8.800000190734863,9.899999618530273,600,11,100,3,0,19,62,6,5.5,0,333,111,4,0,0,-62,0,1.100000023841858,9084,1000,1.100000023841858,11.109999656677246,4.400000095367432,128.0,-25306,10.100000381469727,138,2.200000047683716,7.699999809265137,666,1,19,12,3.299999952316284,400,1,1234,1,400,5,1500,3,700,110,24,700,5,1,7,1700,-62,1.100000023841858,80,2,4,800
9,8,3.299999952316284,4.400000095367432,2,25,123,600,321,2.200000047683716,-25304,0,12,128.0,60,12,-25304,-5,1.100000023841858,2.200000047683716,15,2.200000047683716,5,300,12.119999885559082,6.599999904632568,8.800000190734863,9.899999618530273,600,12,100,3,0,20,60,6,5.5,0,333,111,4,0,0,-60,0,1.100000023841858,9104,1000,1.100000023841858,11.109999656677246,4.400000095367432,128.0,-25304,10.100000381469727,140,2.200000047683716,7.699999809265137,666,1,20,12,3.299999952316284,400,1,1234,1,400,5,1500,3,700,120,24,700,5,1,7,1700,-60,1.100000023841858,79,2,4,800
9,8,3.299999952316284,4.400000095367432,2,25,123,600,321,2.200000047683716,-25302,0,12,128.0,58,13,-25302,-5,1.100000023841858,2.200000047683716,15,2.200000047683716,5,300,12.119999885559082,6.599999904632568,8.800000190734863,9.899999618530273,600,13,100,3,0,21,58,6,5.5,0,333,111,4,0,0,-58,0,1.100000023841858,9124,1000,1.100000023841858,11.109999656677246,4.400000095367432,128.0,-25302,10.100000381469727,142,2.200000047683716,7.699999809265137,666,1,21,12,3.299999952316284,400,1,1234,1,400,5,1500,3,700,130,24,700,5,1,7,1700,-58,1.100000023841858,78,2,4,800
9,8,3.299999952316284,4.400000095367432,2,25,123,600,321,2.200000047683716,-25300,0,12,128.0,56,14,-25300,-5,1.100000023841858,2.200000047683716,15,2.200000047683716,5,300,12.119999885559082,6.599999904632568,8.800000190734863,9.899999618530273,600,14,100,3,0,22,56,6,5.5,0,333,111,4,0,0,-56,0,1.100000023841858,9144,1000,1.100000023841858,11.109999656677246,4.400000095367432,128.0,-25300,10.100000381469727,144,2.200000047683716,7.699999809265137,666,1,22,12,3.299999952316284,400,1,1234,1,400,5,1500,3,700,140,24,700,5,1,7,1700,-56,1.100000023841858,77,2,4,800
9,8,3.299999952316284,4.400000095367432,2,25,123,600,321,2.200000047683716,-25298,0,12,128.0,54,15,-25298,-5,1.100000023841858,2.200000047683716,15,2.200000047683716,5,300,12.119999885559082,6.599999904632568,8.800000190734863,9.899999618530273,600,15,100,3,0,23,54,6,5.5,0,333,111,4,0,0,-54,0,1.100000023841858,9164,1000,1.100000023841858,11.109999656677246,4.400000095367432,128.0,-25298,10.100000381469727,146,2.200000047683716,7.699999809265137,666,1,23,12,3.299999952316284,400,1,1234,1,400,5,1500,3,700,150,24,700,5,1,7,1700,-54,1.100000023841858,76,2,4,800
9,8,3.299999952316284,4.400000095367432,2,25,123,600,321,2.200000047683716,-25296,0,12,128.0,52,16,-25296,-5,1.100000023841858,2.200000047683716,15,2.200000047683716,5,300,12.119999885559082,6.599999904632568,8.800000190734863,9.899999618530273,600,16,100,3,0,24,52,6,5.5,0,333,111,4,0,0,-52,0,1.100000023841858,9184,1000,1.100000023841858,11.109999656677246,4.400000095367432,128.0,-25296,10.100000381469727,148,2.200000047683716,7.699999809265137,666,1,24,12,3.299999952316284,400,1,1234,1,400,5,1500,3,700,160,24,700,5,1,7,1700,-52,1.100000023841858,75,2,4,800
9,8,3.299999952316284,4.400000095367432,2,25,123,600,321,2.200000047683716,-25294,0,12,128.0,50,17,-25294,-5,1.100000023841858,2.200000047683716,15,2.200000047683716,5,300,12.119999885559082,6.599999904632568,8.800000190734863,9.899999618530273,600,17,100,3,0,25,50,6,5.5,0,333,111,4,0,0,-50,0,1.100000023841858,9204,1000,1.100000023841858,11.109999656677246,4.400000095367432,128.0,-25294,10.100000381469727,150,2.200000047683716,7.699999809265137,666,1,25,12,3.299999952316284,400,1,1234,1,400,5,1500,3,700,170,24,700,5,1,7,1700,-50,1.100000023841858,74,2,4,800
9,8,3.299999952316284,4.400000095367432,2,25,123,600,321,2.200000047683716,-25292,0,12,128.0,48,18,-25292,-5,1.100000023841858,2.200000047683716,15,2.200000047683716,5,300,12.119999885559082,6.599999904632568,8.800000190734863,9.899999618530273,600,18,100,3,0,26,48,6,5.5,0,333,111,4,0,0,-48,0,1.100000023841858,9224,1000,1.100000023841858,11.109999656677246,4.400000095367432,128.0,-25292,10.100000381469727,152,2.200000047683716,7.699999809265137,666,1,26,12,3.299999952316284,400,1,1234,1,400,5,1500,3,700,180,24,700,5,1,7,1700,-48,1.100000023841858,73,2,4,800
9,8,3.299999952316284,4.400000095367432,2,25,123,600,321,2.200000047683716,-25290,0,12,128.0,46,19,-25290,-5,1.100000023841858,2.200000047683716,15,2.200000047683716,5,300,12.119999885559082,6.599999904632568,8.800000190734863,9.899999618530273,600,19,100,3,0,27,46,6,5.5,0,333,111,4,0,0,-46,0,1.100000023841858,9244,1000,1.100000023841858,11.109999656677246,4.400000095367432,128.0,-25290,10.100000381469727,154,2.200000047683716,7.699999809265137,666,1,27,12,3.299999952316284,400,1,1234,1,400,5,1500,3,700,190,24,700,5,1,7,1700,-46,1.100000023841858,72,2,4,800
9,8,3.299999952316284,4.400000095367432,2,25,123,600,321,2.200000047683716,-25288,0,12,128.0,44,20,-25288,-5,1.100000023841858,2.200000047683716,15,2.200000047683716,5,300,12.119999885559082,6.599999904632568,8.800000190734863,9.899999618530273,600,20,100,3,0,28,44,6,5.5,0,333,111,4,0,0,-44,0,1.100000023841858,9264,1000,1.100000023841858,11.109999656677246,4.400000095367432,128.0,-25288,10.100000381469727,156,2.200000047683716,7.699999809265137,666,1,28,12,3.299999952316284,400,1,1234,1,400,5,1500,3,700,200,24,700,5,1,7,1700,-44,1.100000023841858,71,2,4,800
9,8,3.299999952316284,4.400000095367432,2,25,123,600,321,2.200000047683716,-25286,0,12,128.0,42,21,-25286,-5,1.100000023841858,2.200000047683716,15,2.200000047683716,5,300,12.119999885559082,6.599999904632568,8.800000190734863,9.899999618530273,600,21,100,3,0,29,42,6,5.5,0,333,111,4,0,0,-42,0,1.100000023841858,9284,1000,1.100000023841858,11.109999656677246,4.400000095367432,128.0,-25286,10.100000381469727,158,2.200000047683716,7.699999809265137,666,1,29,12,3.299999952316284,400,1,1234,1,400,5,1500,3,700,210,24,700,5,1,7,1700,-42,1.100000023841858,70,2,4,800
9,8,3.299999952316284,4.400000095367432,2,25,123,600,321,2.200000047683716,-25284,0,12,128.0,40,22,-25284,-5,1.100000023841858,2.200000047683716,15,2.200000047683716,5,300,12.119999885559082,6.599999904632568,8.800000190734863,9.899999618530273,600,22,100,3,0,30,40,6,5.5,0,333,111,4,0,0,-40,0,1.100000023841858,9304,1000,1.100000023841858,11.109999656677246,4.400000095367432,128.0,-25284,10.100000381469727,160,2.200000047683716,7.699999809265137,666,1,30,12,3.299999952316284,400,1,1234,1,400,5,1500,3,700,220,24,700,5,1,7,1700,-40,1.100000023841858,69,2,4,800
9,8,3.299999952316284,4.400000095367432,2,25,123,600,321,2.200000047683716,-25282,0,12,128.0,38,23,-25282,-5,1.100000023841858,2.200000047683716,15,2.200000047683716,5,300,12.119999885559082,6.599999904632568,8.800000190734863,9.899999618530273,600,23,100,3,0,31,38,6,5.5,0,333,111,4,0,0,-38,0,1.100000023841858,9324,1000,1.100000023841858,11.109999656677246,4.400000095367432,128.0,-25282,10.100000381469727,162,2.200000047683716,7.699999809265137,666,1,31,12,3.299999952316284,400,1,1234,1,400,5,1500,3,700,230,24,700,5,1,7,1700,-38,1.100000023841858,68,2,4,800
9,8,3.299999952316284,4.400000095367432,2,25,123,600,321,2.200000047683716,-25280,0,12,128.0,36,24,-25280,-5,1.100000023841858,2.200000047683716,15,2.200000047683716,5,300,12.119999885559082,6.599999904632568,8.800000190734863,9.899999618530273,600,24,100,3,0,32,36,6,5.5,0,333,111,4,0,0,-36,0,1.100000023841858,9344,1000,1.100000023841858,11.109999656677246,4.400000095367432,128.0,-25280,10.100000381469727,164,2.200000047683716,7.699999809265137,666,1,32,12,3.299999952316284,400,1,1234,1,400,5,1500,3,700,240,24,700,5,1,7,1700,-36,1.100000023841858,67,2,4,800
9,8,3.299999952316284,4.400000095367432,2,25,123,600,321,2.200000047683716,-25278,0,12,128.0,34,25,-25278,-5,1.100000023841858,2.200000047683716,15,2.200000047683716,5,300,12.119999885559082,6.599999904632568,8.800000190734863,9.899999618530273,600,25,100,3,0,33,34,6,5.5,0,333,111,4,0,0,-34,0,1.100000023841858,9364,1000,1.100000023841858,11.109999656677246,4.400000095367432,128.0,-25278,10.100000381469727,166,2.200000047683716,7.699999809265137,666,1,33,12,3.299999952316284,400,1,1234,1,400,5,1500,3,700,250,24,700,5,1,7,1700,-34,1.100000023841858,66,2,4,800
9,8,3.299999952316284,4.400000095367432,2,25,123,600,321,2.200000047683716,-25276,0,12,128.0,32,26,-25276,-5,1.100000023841858,2.200000047683716,15,2.200000047683716,5,300,12.119999885559082,6.599999904632568,8.800000190734863,9.899999618530273,600,26,100,3,0,34,32,6,5.5,0,333,111,4,0,0,-32,0,1.100000023841858,9384,1000,1.100000023841858,11.109999656677246,4.400000095367432,128.0,-25276,10.100000381469727,168,2.200000047683716,7.699999809265137,666,1,34,12,3.299999952316284,400,1,1234,1,400,5,1500,3,700,260,24,700,5,1,7,1700,-32,1.100000023841858,65,2,4,800
9,8,3.299999952316284,4.400000095367432,2,25,123,600,321,2.200000047683716,-25274,0,12,128.0,30,27,-25274,-5,1.100000023841858,2.200000047683716,15,2.200000047683716,5,300,12.119999885559082,6.599999904632568,8.800000190734863,9.899999618530273,600,27,100,3,0,35,30,6,5.5,0,333,111,4,0,0,-30,0,1.100000023841858,9404,1000,1.100000023841858,11.109999656677246,4.400000095367432,128.0,-25274,10.100000381469727,170,2.200000047683716,7.699999809265137,666,1,35,12,3.299999952316284,400,1,1234,1,400,5,1500,3,700,270,24,700,5,1,7,1700,-30,1.100000023841858,64,2,4,800
9,8,3.299999952316284,4.400000095367432,2,25,123,600,321,2.200000047683716,-25272,0,12,128.0,28,28,-25272,-5,1.100000023841858,2.200000047683716,15,2.200000047683716,5,300,12.119999885559082,6.599999904632568,8.800000190734863,9.899999618530273,600,28,100,3,0,36,28,6,5.5,0,333,111,4,0,0,-28,0,1.100000023841858,9424,1000,1.100000023841858,11.109999656677246,4.400000095367432,128.0,-25272,10.100000381469727,172,2.200000047683716,7.699999809265137,666,1,36,12,3.299999952316284,400,1,1234,1,400,5,1500,3,700,280,24,700,5,1,7,1700,-28,1.100000023841858,63,2,4,800
9,8,3.299999952316284,4.400000095367432,2,25,123,600,321,2.200000047683716,-25270,0,12,128.0,26,29,-25270,-5,1.100000023841858,2.200000047683716,15,2.200000047683716,5,300,12.119999885559082,6.599999904632568,8.800000190734863,9.899999618530273,600,29,100,3,0,37,26,6,5.5,0,333,111,4,0,0,-26,0,1.100000023841858,9444,1000,1.100000023841858,11.109999656677246,4.400000095367432,128.0,-25270,10.100000381469727,174,2.200000047683716,7.699999809265137,666,1,37,12,3.299999952316284,400,1,1234,1,400,5,1500,3,700,290,24,700,5,1,7,1700,-26,1.100000023841858,62,2,4,800
9,8,3.299999952316284,4.400000095367432,2,25,123,600,321,2.200000047683716,-25268,0,12,128.0,24,30,-25268,-5,1.100000023841858,2.200000047683716,15,2.200000047683716,5,300,12.119999885559082,6.599999904632568,8.800000190734863,9.899999618530273,600,30,100,3,0,38,24,6,5.5,0,333,111,4,0,0,-24,0,1.100000023841858,9464,1000,1.100000023841858,11.109999656677246,4.400000095367432,128.0,-25268,10.100000381469727,176,2.200000047683716,7.699999809265137,666,1,38,12,3.299999952316284,400,1,1234,1,400,5,1500,3,700,300,24,700,5,1,7,1700,-24,1.100000023841858,61,2,4,800
9,8,3.299999952316284,4.400000095367432,2,25,123,600,321,2.200000047683716,-25266,0,12,128.0,22,31,-25266,-5,1.100000023841858,2.200000047683716,15,2.200000047683716,5,300,12.119999885559082,6.599999904632568,8.800000190734863,9.899999618530273,600,31,100,3,0,39,22,6,5.5,0,333,111,4,0,0,-22,0,1.100000023841858,9484,1000,1.100000023841858,11.109999656677246,4.400000095367432,128.0,-25266,10.100000381469727,178,2.200000047683716,7.699999809265137,666,1,39,12,3.299999952316284,400,1,1234,1,400,5,1500,3,700,310,24,700,5,1,7,1700,-22,1.100000023841858,60,2,4,800
9,8,3.299999952316284,4.400000095367432,2,25,123,600,321,2.200000047683716,-25264,0,12,128.0,20,32,-25264,-5,1.100000023841858,2.200000047683716,15,2.200000047683716,5,300,12.119999885559082,6.599999904632568,8.800000190734863,9.899999618530273,600,32,100,3,0,40,20,6,5.5,0,333,111,4,0,0,-20,0,1.100000023841858,9504,1000,1.100000023841858,11.109999656677246,4.400000095367432,128.0,-25264,10.100000381469727,-180,2.200000047683716,7.699999809265137,666,1,40,12,3.299999952316284,400,1,1234,1,400,5,1500,3,700,320,24,700,5,1,7,1700,-20,1.100000023841858,59,2,4,800
9,8,3.299999952316284,4.400000095367432,2,25,123,600,321,2.200000047683716,-25262,0,12,128.0,18,33,-25262,-5,1.100000023841858,2.200000047683716,15,2.200000047683716,5,300,12.119999885559082,6.599999904632568,8.800000190734863,9.899999618530273,600,33,100,3,0,41,18,6,5.5,0,333,111,4,0,0,-18,0,1.100000023841858,9524,1000,1.100000023841858,11.109999656677246,4.400000095367432,128.0,-25262,10.100000381469727,-178,2.200000047683716,7.699999809265137,666,1,41,12,3.299999952316284,400,1,1234,1,400,5,1500,3,700,330,24,700,5,1,7,1700,-18,1.100000023841858,58,2,4,800
9,8,3.299999952316284,4.400000095367432,2,25,123,600,321,2.200000047683716,-25260,0,12,128.0,16,34,-25260,-5,1.100000023841858,2.200000047683716,15,2.200000047683716,5,300,12.119999885559082,6.599999904632568,8.800000190734863,9.899999618530273,600,34,100,3,0,42,16,6,5.5,0,333,111,4,0,0,-16,0,1.100000023841858,9544,1000,1.100000023841858,11.109999656677246,4.400000095367432,128.0,-25260,10.100000381469727,-176,2.200000047683716,7.699999809265137,666,1,42,12,3.299999952316284,400,1,1234,1,400,5,1500,3,700,340,24,700,5,1,7,1700,-16,1.100000023841858,57,2,4,800
9,8,3.299999952316284,4.400000095367432,2,25,123,600,321,2.200000047683716,-25258,0,12,128.0,14,35,-25258,-5,1.100000023841858,2.200000047683716,15,2.200000047683716,5,300,12.119999885559082,6.599999904632568,8.800000190734863,9.899999618530273,600,35,100,3,0,43,14,6,5.5,0,333,111,4,0,0,-14,0,1.100000023841858,9564,1000,1.100000023841858,11.109999656677246,4.400000095367432,128.0,-25258,10.100000381469727,-174,2.200000047683716,7.699999809265137,666,1,43,12,3.299999952316284,400,1,1234,1,400,5,1500,3,700,350,24,700,5,1,7,1700,-14,1.100000023841858,56,2,4,800
9,8,3.299999952316284,4.400000095367432,2,25,123,600,321,2.200000047683716,-25256,0,12,128.0,12,36,-25256,-5,1.100000023841858,2.200000047683716,15,2.200000047683716,5,300,12.119999885559082,6.599999904632568,8.800000190734863,9.899999618530273,600,36,100,3,0,44,12,6,5.5,0,333,111,4,0,0,-12,0,1.100000023841858,9584,1000,1.100000023841858,11.109999656677246,4.400000095367432,128.0,-25256,10.100000381469727,-172,2.200000047683716,7.699999809265137,666,1,44,12,3.299999952316284,400,1,1234,1,400,5,1500,3,700,360,24,700,5,1,7,1700,-12,1.100000023841858,55,2,4,800
9,8,3.299999952316284,4.400000095367432,2,25,123,600,321,2.200000047683716,-25254,0,12,128.0,10,37,-25254,-5,1.100000023841858,2.200000047683716,15,2.200000047683716,5,300,12.119999885559082,6.599999904632568,8.800000190734863,9.899999618530273,600,37,100,3,0,45,10,6,5.5,0,333,111,4,0,0,-10,0,1.100000023841858,9604,1000,1.100000023841858,11.109999656677246,4.400000095367432,128.0,-25254,10.100000381469727,-170,2.200000047683716,7.699999809265137,666,1,45,12,3.299999952316284,400,1,1234,1,400,5,1500,3,700,370,24,700,5,1,7,1700,-10,1.100000023841858,54,2,4,800
9,8,3.299999952316284,4.400000095367432,2,25,123,600,321,2.200000047683716,-25252,0,12,128.0,8,38,-25252,-5,1.100000023841858,2.200000047683716,15,2.200000047683716,5,300,12.119999885559082,6.599999904632568,8.800000190734863,9.899999618530273,600,38,100,3,0,46,8,6,5.5,0,333,111,4,0,0,-8,0,1.100000023841858,9624,1000,1.100000023841858,11.109999656677246,4.400000095367432,128.0,-25252,10.100000381469727,-168,2.200000047683716,7.699999809265137,666,1,46,12,3.299999952316284,400,1,1234,1,400,5,1500,3,700,380,24,700,5,1,7,1700,-8,1.100000023841858,53,2,4,800
9,8,3.299999952316284,4.400000095367432,2,25,123,600,321,2.200000047683716,-25250,0,12,128.0,6,39,-25250,-5,1.100000023841858,2.200000047683716,15,2.200000047683716,5,300,12.119999885559082,6.599999904632568,8.800000190734863,9.899999618530273,600,39,100,3,0,47,6,6,5.5,0,333,111,4,0,0,-6,0,1.100000023841858,9644,1000,1.100000023841858,11.109999656677246,4.400000095367432,128.0,-25250,10.100000381469727,-166,2.200000047683716,7.699999809265137,666,1,47,12,3.299999952316284,400,1,1234,1,400,5,1500,3,700,390,24,700,5,1,7,1700,-6,1.100000023841858,52,2,4,800
9,8,3.299999952316284,4.400000095367432,2,25,123,600,321,2.200000047683716,-25248,0,12,128.0,4,40,-25248,-5,1.100000023841858,2.200000047683716,15,2.200000047683716,5,300,12.119999885559082,6.599999904632568,8.800000190734863,9.899999618530273,600,40,100,3,0,48,4,6,5.5,0,333,111,4,0,0,-4,0,1.100000023841858,9664,1000,1.100000023841858,11.109999656677246,4.400000095367432,128.0,-25248,10.100000381469727,-164,2.200000047683716,7.699999809265137,666,1,48,12,3.299999952316284,400,1,1234,1,400,5,1500,3,700,400,24,700,5,1,7,1700,-4,1.100000023841858,51,2,4,800
9,8,3.299999952316284,4.400000095367432,2,25,123,600,321,2.200000047683716,-25246,0,12,128.0,2,41,-25246,-5,1.100000023841858,2.200000047683716,15,2.200000047683716,5,300,12.119999885559082,6.599999904632568,8.800000190734863,9.899999618530273,600,41,100,3,0,49,2,6,5.5,0,333,111,4,0,0,-2,0,1.100000023841858,9684,1000,1.100000023841858,11.109999656677246,4.400000095367432,128.0,-25246,10.100000381469727,-162,2.200000047683716,7.699999809265137,666,1,49,12,3.299999952316284,400,1,1234,1,400,5,1500,3,700,410,24,700,5,1,7,1700,-2,1.100000023841858,50,2,4,800
9,8,3.299999952316284,4.400000095367432,2,25,123,600,321,2.200000047683716,-25244,0,12,128.0,-2,42,-25244,-5,1.100000023841858,2.200000047683716,15,2.200000047683716,5,300,12.119999885559082,6.599999904632568,8.800000190734863,9.899999618530273,600,42,100,3,0,50,-2,6,5.5,0,333,111,4,0,0,2,0,1.100000023841858,9704,1000,1.100000023841858,11.109999656677246,4.400000095367432,128.0,-25244,10.100000381469727,-160,2.200000047683716,7.699999809265137,666,1,50,12,3.299999952316284,400,1,1234,1,400,5,1500,3,700,420,24,700,5,1,7,1700,2,1.100000023841858,49,2,4,800
9,8,3.299999952316284,4.400000095367432,2,25,123,600,321,2.200000047683716,-25242,0,12,128.0,-4,43,-25242,-5,1.100000023841858,2.200000047683716,15,2.200000047683716,5,300,12.119999885559082,6.599999904632568,8.800000190734863,9.899999618530273,600,43,100,3,0,51,-4,6,5.5,0,333,111,4,0,0,4,0,1.100000023841858,9724,1000,1.100000023841858,11.109999656677246,4.400000095367432,128.0,-25242,10.100000381469727,-158,2.200000047683716,7.699999809265137,666,1,51,12,3.299999952316284,400,1,1234,1,400,5,1500,3,700,430,24,700,5,1,7,1700,4,1.100000023841858,48,2,4,800
9,8,3.299999952316284,4.400000095367432,2,25,123,600,321,2.200000047683716,-25240,0,12,128.0,-6,44,-25240,-5,1.100000023841858,2.200000047683716,15,2.200000047683716,5,300,12.119999885559082,6.599999904632568,8.800000190734863,9.899999618530273,600,44,100,3,0,52,-6,6,5.5,0,333,111,4,0,0,6,0,1.100000023841858,9744,1000,1.100000023841858,11.109999656677246,4.400000095367432,128.0,-25240,10.100000381469727,-156,2.200000047683716,7.699999809265137,666,1,52,12,3.299999952316284,400,1,1234,1,400,5,1500,3,700,440,24,700,5,1,7,1700,6,1.100000023841858,47,2,4,800
9,8,3.299999952316284,4.400000095367432,2,25,123,600,321,2.200000047683716,-25238,0,12,128.0,-8,45,-25238,-5,1.100000023841858,2.200000047683716,15,2.200000047683716,5,300,12.119999885559082,6.599999904632568,8.800000190734863,9.899999618530273,600,45,100,3,0,53,-8,6,5.5,0,333,111,4,0,0,8,0,1.100000023841858,9764,1000,1.100000023841858,11.109999656677246,4.400000095367432,128.0,-25238,10.100000381469727,-154,2.200000047683716,7.699999809265137,666,1,53,12,3.299999952316284,400,1,1234,1,400,5,1500,3,700,450,24,700,5,1,7,1700,8,1.100000023841858,46,2,4,800
9,8,3.299999952316284,4.400000095367432,2,25,123,600,321,2.200000047683716,-25236,0,12,128.0,-10,46,-25236,-5,1.100000023841858,2.200000047683716,15,2.200000047683716,5,300,12.119999885559082,6.599999904632568,8.800000190734863,9.899999618530273,600,46,100,3,0,54,-10,6,5.5,0,333,111,4,0,0,10,0,1.100000023841858,9784,1000,1.100000023841858,11.109999656677246,4.400000095367432,128.0,-25236,10.100000381469727,-152,2.200000047683716,7.699999809265137,666,1,54,12,3.299999952316284,400,1,1234,1,400,5,1500,3,700,460,24,700,5,1,7,1700,10,1.100000023841858,45,2,4,800
9,8,3.299999952316284,4.400000095367432,2,25,123,600,321,2.200000047683716,-25234,0,12,128.0,-12,47,-25234,-5,1.100000023841858,2.200000047683716,15,2.200000047683716,5,300,12.119999885559082,6.599999904632568,8.800000190734863,9.899999618530273,600,47,100,3,0,55,-12,6,5.5,0,333,111,4,0,0,12,0,1.100000023841858,9804,1000,1.100000023841858,11.109999656677246,4.400000095367432,128.0,-25234,10.100000381469727,-150,2.200000047683716,7.699999809265137,666,1,55,12,3.299999952316284,400,1,1234,1,400,5,1500,3,700,470,24,700,5,1,7,1700,12,1.100000023841858,44,2,4,800
9,8,3.299999952316284,4.400000095367432,2,25,123,600,321,2.200000047683716,-25232,0,12,128.0,-14,48,-25232,-5,1.100000023841858,2.200000047683716,15,2.200000047683716,5,300,12.119999885559082,6.599999904632568,8.800000190734863,9.899999618530273,600,48,100,3,0,56,-14,6,5.5,0,333,111,4,0,0,14,0,1.100000023841858,9824,1000,1.100000023841858,11.109999656677246,4.400000095367432,128.0,-25232,10.100000381469727,-148,2.200000047683716,7.699999809265137,666,1,56,12,3.299999952316284,400,1,1234,1,400,5,1500,3,700,480,24,700,5,1,7,1700,14,1.100000023841858,43,2,4,800
9,8,3.299999952316284,4.400000095367432,2,25,123,600,321,2.200000047683716,-25230,0,12,128.0,-16,49,-25230,-5,1.100000023841858,2.200000047683716,15,2.200000047683716,5,300,12.119999885559082,6.599999904632568,8.800000190734863,9.899999618530273,600,49,100,3,0,57,-16,6,5.5,0,333,111,4,0,0,16,0,1.100000023841858,9844,1000,1.100000023841858,11.109999656677246,4.400000095367432,128.0,-25230,10.100000381469727,-146,2.200000047683716,7.699999809265137,666,1,57,12,3.299999952316284,400,1,1234,1,400,5,1500,3,700,490,24,700,5,1,7,1700,16,1.100000023841858,42,2,4,800
9,8,3.299999952316284,4.400000095367432,2,25,123,600,321,2.200000047683716,-25228,0,12,128.0,-18,50,-25228,-5,1.100000023841858,2.200000047683716,15,2.200000047683716,5,300,12.119999885559082,6.599999904632568,8.800000190734863,9.899999618530273,600,50,100,3,0,58,-18,6,5.5,0,333,111,4,0,0,18,0,1.100000023841858,9864,1000,1.100000023841858,11.109999656677246,4.400000095367432,128.0,-25228,10.100000381469727,-144,2.200000047683716,7.699999809265137,666,1,58,12,3.299999952316284,400,1,1234,1,400,5,1500,3,700,500,24,700,5,1,7,1700,18,1.100000023841858,41,2,4,800
9,8,3.299999952316284,4.400000095367432,2,25,123,600,321,2.200000047683716,-25226,0,12,128.0,-20,51,-25226,-5,1.100000023841858,2.200000047683716,15,2.200000047683716,5,300,12.119999885559082,6.599999904632568,8.800000190734863,9.899999618530273,600,51,100,3,0,59,-20,6,5.5,0,333,111,4,0,0,20,0,1.100000023841858,9884,1000,1.100000023841858,11.109999656677246,4.400000095367432,128.0,-25226,10.100000381469727,-142,2.200000047683716,7.699999809265137,666,1,59,12,3.299999952316284,400,1,1234,1,400,5,1500,3,700,510,24,700,5,1,7,1700,20,1.100000023841858,40,2,4,800
9,8,3.299999952316284,4.400000095367432,2,25,123,600,321,2.200000047683716,-25224,0,12,128.0,-22,52,-25224,-5,1.100000023841858,2.200000047683716,15,2.200000047683716,5,300,12.119999885559082,6.599999904632568,8.800000190734863,9.899999618530273,600,52,100,3,0,60,-22,6,5.5,0,333,111,4,0,0,22,0,1.100000023841858,9904,1000,1.100000023841858,11.109999656677246,4.400000095367432,128.0,-25224,10.100000381469727,-140,2.200000047683716,7.699999809265137,666,1,60,12,3.299999952316284,400,1,1234,1,400,5,1500,3,700,520,24,700,5,1,7,1700,22,1.100000023841858,39,2,4,800
9,8,3.299999952316284,4.400000095367432,2,25,123,600,321,2.200000047683716,-25222,0,12,128.0,-24,53,-25222,-5,1.100000023841858,2.200000047683716,15,2.200000047683716,5,300,12.119999885559082,6.599999904632568,8.800000190734863,9.899999618530273,600,53,100,3,0,61,-24,6,5.5,0,333,111,4,0,0,24,0,1.100000023841858,9924,1000,1.100000023841858,11.109999656677246,4.400000095367432,128.0,-25222,10.100000381469727,-138,2.200000047683716,7.699999809265137,666,1,61,12,3.299999952316284,400,1,1234,1,400,5,1500,3,700,530,24,700,5,1,7,1700,24,1.100000023841858,38,2,4,800
9,8,3.299999952316284,4.400000095367432,2,25,123,600,321,2.200000047683716,-25220,0,12,128.0,-26,54,-25220,-5,1.100000023841858,2.200000047683716,15,2.200000047683716,5,300,12.119999885559082,6.599999904632568,8.800000190734863,9.899999618530273,600,54,100,3,0,62,-26,6,5.5,0,333,111,4,0,0,26,0,1.100000023841858,9944,1000,1.100000023841858,11.109999656677246,4.400000095367432,128.0,-25220,10.100000381469727,-136,2.200000047683716,7.699999809265137,666,1,62,12,3.299999952316284,400,1,1234,1,400,5,1500,3,700,540,24,700,5,1,7,1700,26,1.100000023841858,37,2,4,800
9,8,3.299999952316284,4.400000095367432,2,25,123,600,321,2.200000047683716,-25218,0,12,128.0,-28,55,-25218,-5,1.100000023841858,2.200000047683716,15,2.200000047683716,5,300,12.119999885559082,6.599999904632568,8.800000190734863,9.899999618530273,600,55,100,3,0,63,-28,6,5.5,0,333,111,4,0,0,28,0,1.100000023841858,9964,1000,1.100000023841858,11.109999656677246,4.400000095367432,128.0,-25218,10.100000381469727,-134,2.200000047683716,7.699999809265137,666,1,63,12,3.299999952316284,400,1,1234,1,400,5,1500,3,700,550,24,700,5,1,7,1700,28,1.100000023841858,36,2,4,800
9,8,3.299999952316284,4.400000095367432,2,25,123,600,321,2.200000047683716,-25216,0,12,128.0,-30,56,-25216,-5,1.100000023841858,2.200000047683716,15,2.200000047683716,5,300,12.119999885559082,6.599999904632568,8.800000190734863,9.899999618530273,600,56,100,3,0,64,-30,6,5.5,0,333,111,4,0,0,30,0,1.100000023841858,9984,1000,1.100000023841858,11.109999656677246,4.400000095367432,128.0,-25216,10.100000381469727,-132,2.200000047683716,7.699999809265137,666,1,64,12,3.299999952316284,400,1,1234,1,400,5,1500,3,700,560,24,700,5,1,7,1700,30,1.100000023841858,35,2,4,800
9,8,3.299999952316284,4.400000095367432,2,25,123,600,321,2.200000047683716,-25214,0,12,128.0,-32,57,-25214,-5,1.100000023841858,2.200000047683716,15,2.200000047683716,5,300,12.119999885559082,6.599999904632568,8.800000190734863,9.899999618530273,600,57,100,3,0,65,-32,6,5.5,0,333,111,4,0,0,32,0,1.100000023841858,10004,1000,1.100000023841858,11.109999656677246,4.400000095367432,128.0,-25214,10.100000381469727,-130,2.200000047683716,7.699999809265137,666,1,65,12,3.299999952316284,400,1,1234,1,400,5,1500,3,700,570,24,700,5,1,7,1700,32,1.100000023841858,34,2,4,800
9,8,3.299999952316284,4.400000095367432,2,25,123,600,321,2.200000047683716,-25212,0,12,128.0,-34,58,-25212,-5,1.100000023841858,2.200000047683716,15,2.200000047683716,5,300,12.119999885559082,6.599999904632568,8.800000190734863,9.899999618530273,600,58,100,3,0,66,-34,6,5.5,0,333,111,4,0,0,34,0,1.100000023841858,10024,1000,1.100000023841858,11.109999656677246,4.400000095367432,128.0,-25212,10.100000381469727,-128,2.200000047683716,7.699999809265137,666,1,66,12,3.299999952316284,400,1,1234,1,400,5,1500,3,700,580,24,700,5,1,7,1700,34,1.100000023841858,33,2,4,800
9,8,3.299999952316284,4.400000095367432,2,25,123,600,321,2.200000047683716,-25210,0,12,128.0,-36,59,-25210,-5,1.100000023841858,2.200000047683716,15,2.200000047683716,5,300,12.119999885559082,6.599999904632568,8.800000190734863,9.899999618530273,600,59,100,3,0,67,-36,6,5.5,0,333,111,4,0,0,36,0,1.100000023841858,10044,1000,1.100000023841858,11.109999656677246,4.400000095367432,128.0,-25210,10.100000381469727,-126,2.200000047683716,7.699999809265137,666,1,67,12,3.299999952316284,400,1,1234,1,400,5,1500,3,700,590,24,700,5,1,7,1700,36,1.100000023841858,32,2,4,800
9,8,3.299999952316284,4.400000095367432,2,25,123,600,321,2.200000047683716,-25208,0,12,128.0,-38,60,-25208,-5,1.100000023841858,2.200000047683716,15,2.200000047683716,5,300,12.119999885559082,6.599999904632568,8.800000190734863,9.899999618530273,600,60,100,3,0,68,-38,6,5.5,0,333,111,4,0,0,38,0,1.100000023841858,10064,1000,1.100000023841858,11.109999656677246,4.400000095367432,128.0,-25208,10.100000381469727,-124,2.200000047683716,7.699999809265137,666,1,68,12,3.299999952316284,400,1,1234,1,400,5,1500,3,700,600,24,700,5,1,7,1700,38,1.100000023841858,31,2,4,800
9,8,3.299999952316284,4.400000095367432,2,25,123,600,321,2.200000047683716,-25206,0,12,128.0,-40,61,-25206,-5,1.100000023841858,2.200000047683716,15,2.200000047683716,5,300,12.119999885559082,6.599999904632568,8.800000190734863,9.899999618530273,600,61,100,3,0,69,-40,6,5.5,0,333,111,4,0,0,40,0,1.100000023841858,10084,1000,1.100000023841858,11.109999656677246,4.400000095367432,128.0,-25206,10.100000381469727,-122,2.200000047683716,7.699999809265137,666,1,69,12,3.299999952316284,400,1,1234,1,400,5,1500,3,700,610,24,700,5,1,7,1700,40,1.100000023841858,30,2,4,800
9,8,3.299999952316284,4.400000095367432,2,25,123,600,321,2.200000047683716,-25204,0,12,128.0,-42,62,-25204,-5,1.100000023841858,2.200000047683716,15,2.200000047683716,5,300,12.119999885559082,6.599999904632568,8.800000190734863,9.899999618530273,600,62,100,3,0,70,-42,6,5.5,0,333,111,4,0,0,42,0,1.100000023841858,10104,1000,1.100000023841858,11.109999656677246,4.400000095367432,128.0,-25204,10.100000381469727,-120,2.200000047683716,7.699999809265137,666,1,70,12,3.299999952316284,400,1,1234,1,400,5,1500,3,700,620,24,700,5,1,7,1700,42,1.100000023841858,29,2,4,800
9,8,3.299999952316284,4.400000095367432,2,25,123,600,321,2.200000047683716,-25202,0,12,128.0,-44,63,-25202,-5,1.100000023841858,2.200000047683716,15,2.200000047683716,5,300,12.119999885559082,6.599999904632568,8.800000190734863,9.899999618530273,600,63,100,3,0,71,-44,6,5.5,0,333,111,4,0,0,44,0,1.100000023841858,10124,1000,1.100000023841858,11.109999656677246,4.400000095367432,128.0,-25202,10.100000381469727,-118,2.200000047683716,7.699999809265137,666,1,71,12,3.299999952316284,400,1,1234,1,400,5,1500,3,700,630,24,700,5,1,7,1700,44,1.100000023841858,28,2,4,800
9,8,3.299999952316284,4.400000095367432,2,25,123,600,321,2.200000047683716,-25200,0,12,128.0,-46,64,-25200,-5,1.100000023841858,2.200000047683716,15,2.200000047683716,5,300,12.119999885559082,6.599999904632568,8.800000190734863,9.899999618530273,600,64,100,3,0,72,-46,6,5.5,0,333,111,4,0,0,46,0,1.100000023841858,10144,1000,1.100000023841858,11.109999656677246,4.400000095367432,128.0,-25200,10.100000381469727,-116,2.200000047683716,7.699999809265137,666,1,72,12,3.299999952316284,400,1,1234,1,400,5,1500,3,700,640,24,700,5,1,7,1700,46,1.100000023841858,27,2,4,800
9,8,3.299999952316284,4.400000095367432,2,25,123,600,321,2.200000047683716,-25198,0,12,128.0,-48,65,-25198,-5,1.100000023841858,2.200000047683716,15,2.200000047683716,5,300,12.119999885559082,6.599999904632568,8.800000190734863,9.899999618530273,600,65,100,3,0,73,-48,6,5.5,0,333,111,4,0,0,48,0,1.100000023841858,10164,1000,1.100000023841858,11.109999656677246,4.400000095367432,128.0,-25198,10.100000381469727,-114,2.200000047683716,7.699999809265137,666,1,73,12,3.299999952316284,400,1,1234,1,400,5,1500,3,700,650,24,700,5,1,7,1700,48,1.100000023841858,26,2,4,800
9,8,3.299999952316284,4.400000095367432,2,25,123,600,321,2.200000047683716,-25196,0,12,128.0,-50,66,-25196,-5,1.100000023841858,2.200000047683716,15,2.200000047683716,5,300,12.119999885559082,6.599999904632568,8.800000190734863,9.899999618530273,600,66,100,3,0,74,-50,6,5.5,0,333,111,4,0,0,50,0,1.100000023841858,10184,1000,1.100000023841858,11.109999656677246,4.400000095367432,128.0,-25196,10.100000381469727,-112,2.200000047683716,7.699999809265137,666,1,74,12,3.299999952316284,400,1,1234,1,400,5,1500,3,700,660,24,700,5,1,7,1700,50,1.100000023841858,25,2,4,800
9,8,3.299999952316284,4.400000095367432,2,25,123,600,321,2.200000047683716,-25194,0,12,128.0,-52,67,-25194,-5,1.100000023841858,2.200000047683716,15,2.200000047683716,5,300,12.119999885559082,6.599999904632568,8.800000190734863,9.899999618530273,600,67,100,3,0,75,-52,6,5.5,0,333,111,4,0,0,52,0,1.100000023841858,10204,1000,1.100000023841858,11.109999656677246,4.400000095367432,128.0,-25194,10.100000381469727,-110,2.200000047683716,7.699999809265137,666,1,75,12,3.299999952316284,400,1,1234,1,400,5,1500,3,700,670,24,700,5,1,7,1700,52,1.100000023841858,24,2,4,800
9,8,3.299999952316284,4.400000095367432,2,25,123,600,321,2.200000047683716,-25192,0,12,128.0,-54,68,-25192,-5,1.100000023841858,2.200000047683716,15,2.200000047683716,5,300,12.119999885559082,6.599999904632568,8.800000190734863,9.899999618530273,600,68,100,3,0,76,-54,6,5.5,0,333,111,4,0,0,54,0,1.100000023841858,10224,1000,1.100000023841858,11.109999656677246,4.400000095367432,128.0,-25192,10.100000381469727,-108,2.200000047683716,7.699999809265137,666,1,76,12,3.299999952316284,400,1,1234,1,400,5,1500,3,700,680,24,700,5,1,7,1700,54,1.100000023841858,23,2,4,800
9,8,3.299999952316284,4.400000095367432,2,25,123,600,321,2.200000047683716,-25190,0,12,128.0,-56,69,-25190,-5,1.100000023841858,2.200000047683716,15,2.200000047683716,5,300,12.119999885559082,6.599999904632568,8.800000190734863,9.899999618530273,600,69,100,3,0,77,-56,6,5.5,0,333,111,4,0,0,56,0,1.100000023841858,10244,1000,1.100000023841858,11.109999656677246,4.400000095367432,128.0,-25190,10.100000381469727,-106,2.200000047683716,7.699999809265137,666,1,77,12,3.299999952316284,400,1,1234,1,400,5,1500,3,700,690,24,700,5,1,7,1700,56,1.100000023841858,22,2,4,800
9,8,3.299999952316284,4.400000095367432,2,25,123,600,321,2.200000047683716,-25188,0,12,128.0,-58,70,-25188,-5,1.100000023841858,2.200000047683716,15,2.200000047683716,5,300,12.119999885559082,6.599999904632568,8.800000190734863,9.899999618530273,600,70,100,3,0,78,-58,6,5.5,0,333,111,4,0,0,58,0,1.100000023841858,10264,1000,1.100000023841858,11.109999656677246,4.400000095367432,128.0,-25188,10.100000381469727,-104,2.200000047683716,7.699999809265137,666,1,78,12,3.299999952316284,400,1,1234,1,400,5,1500,3,700,700,24,700,5,1,7,1700,58,1.100000023841858,21,2,4,800
9,8,3.299999952316284,4.400000095367432,2,25,123,600,321,2.200000047683716,-25186,0,12,128.0,-60,71,-25186,-5,1.100000023841858,2.200000047683716,15,2.200000047683716,5,300,12.119999885559082,6.599999904632568,8.800000190734863,9.899999618530273,600,71,100,3,0,79,-60,6,5.5,0,333,111,4,0,0,60,0,1.100000023841858,10284,1000,1.100000023841858,11.109999656677246,4.400000095367432,128.0,-25186,10.100000381469727,-102,2.200000047683716,7.699999809265137,666,1,79,12,3.299999952316284,400,1,1234,1,400,5,1500,3,700,710,24,700,5,1,7,1700,60,1.100000023841858,20,2,4,800
9,8,3.299999952316284,4.400000095367432,2,25,123,600,321,2.200000047683716,-25184,0,12,128.0,-62,72,-25184,-5,1.100000023841858,2.200000047683716,15,2.200000047683716,5,300,12.119999885559082,6.599999904632568,8.800000190734863,9.899999618530273,600,72,100,3,0,80,-62,6,5.5,0,333,111,4,0,0,62,0,1.100000023841858,10304,1000,1.100000023841858,11.109999656677246,4.400000095367432,128.0,-25184,10.100000381469727,-100,2.200000047683716,7.699999809265137,666,1,80,12,3.299999952316284,400,1,1234,1,400,5,1500,3,700,720,24,700,5,1,7,1700,62,1.100000023841858,19,2,4,800
9,8,3.299999952316284,4.400000095367432,2,25,123,600,321,2.200000047683716,-25182,0,12,128.0,-64,73,-25182,-5,1.100000023841858,2.200000047683716,15,2.200000047683716,5,300,12.119999885559082,6.599999904632568,8.800000190734863,9.899999618530273,600,73,100,3,0,81,-64,6,5.5,0,333,111,4,0,0,64,0,1.100000023841858,10324,1000,1.100000023841858,11.109999656677246,4.400000095367432,128.0,-25182,10.100000381469727,-98,2.200000047683716,7.699999809265137,666,1,81,12,3.299999952316284,400,1,1234,1,400,5,1500,3,700,730,24,700,5,1,7,1700,64,1.100000023841858,18,2,4,800
9,8,3.299999952316284,4.400000095367432,2,25,123,600,321,2.200000047683716,-25180,0,12,128.0,-66,74,-25180,-5,1.100000023841858,2.200000047683716,15,2.200000047683716,5,300,12.119999885559082,6.599999904632568,8.800000190734863,9.899999618530273,600,74,100,3,0,82,-66,6,5.5,0,333,111,4,0,0,66,0,1.100000023841858,10344,1000,1.100000023841858,11.109999656677246,4.400000095367432,128.0,-25180,10.100000381469727,-96,2.200000047683716,7.699999809265137,666,1,82,12,3.299999952316284,400,1,1234,1,400,5,1500,3,700,740,24,700,5,1,7,1700,66,1.100000023841858,17,2,4,800
9,8,3.299999952316284,4.400000095367432,2,25,123,600,321,2.200000047683716,-25178,0,12,128.0,-68,75,-25178,-5,1.100000023841858,2.200000047683716,15,2.200000047683716,5,300,12.119999885559082,6.599999904632568,8.800000190734863,9.899999618530273,600,75,100,3,0,83,-68,6,5.5,0,333,111,4,0,0,68,0,1.100000023841858,10364,1000,1.100000023841858,11.109999656677246,4.400000095367432,128.0,-25178,10.100000381469727,-94,2.200000047683716,7.699999809265137,666,1,83,12,3.299999952316284,400,1,1234,1,400,5,1500,3,700,750,24,700,5,1,7,1700,68,1.100000023841858,16,2,4,800
9,8,3.299999952316284,4.400000095367432,2,25,123,600,321,2.200000047683716,-25176,0,12,128.0,-70,76,-25176,-5,1.100000023841858,2.200000047683716,15,2.200000047683716,5,300,12.119999885559082,6.599999904632568,8.800000190734863,9.899999618530273,600,76,100,3,0,84,-70,6,5.5,0,333,111,4,0,0,70,0,1.100000023841858,10384,1000,1.100000023841858,11.109999656677246,4.400000095367432,128.0,-25176,10.100000381469727,-92,2.200000047683716,7.699999809265137,666,1,84,12,3.299999952316284,400,1,1234,1,400,5,1500,3,700,760,24,700,5,1,7,1700,70,1.100000023841858,15,2,4,800
9,8,3.299999952316284,4.400000095367432,2,25,123,600,321,2.200000047683716,-25174,0,12,128.0,-72,77,-25174,-5,1.100000023841858,2.200000047683716,15,2.200000047683716,5,300,12.119999885559082,6.599999904632568,8.800000190734863,9.899999618530273,600,77,100,3,0,85,-72,6,5.5,0,333,111,4,0,0,72,0,1.100000023841858,10404,1000,1.100000023841858,11.109999656677246,4.400000095367432,128.0,-25174,10.100000381469727,-90,2.200000047683716,7.699999809265137,666,1,85,12,3.299999952316284,400,1,1234,1,400,5,1500,3,700,770,24,700,5,1,7,1700,72,1.100000023841858,14,2,4,800
9,8,3.299999952316284,4.400000095367432,2,25,123,600,321,2.200000047683716,-25172,0,12,128.0,-74,78,-25172,-5,1.100000023841858,2.200000047683716,15,2.200000047683716,5,300,12.119999885559082,6.599999904632568,8.800000190734863,9.899999618530273,600,78,100,3,0,86,-74,6,5.5,0,333,111,4,0,0,74,0,1.100000023841858,10424,1000,1.100000023841858,11.109999656677246,4.400000095367432,128.0,-25172,10.100000381469727,-88,2.200000047683716,7.699999809265137,666,1,86,12,3.299999952316284,400,1,1234,1,400,5,1500,3,700,780,24,700,5,1,7,1700,74,1.100000023841858,13,2,4,800
9,8,3.299999952316284,4.400000095367432,2,25,123,600,321,2.200000047683716,-25170,0,12,128.0,-76,79,-25170,-5,1.100000023841858,2.200000047683716,15,2.200000047683716,5,300,12.119999885559082,6.599999904632568,8.800000190734863,9.899999618530273,600,79,100,3,0,87,-76,6,5.5,0,333,111,4,0,0,76,0,1.100000023841858,10444,1000,1.100000023841858,11.109999656677246,4.400000095367432,128.0,-25170,10.100000381469727,-86,2.200000047683716,7.699999809265137,666,1,87,12,3.299999952316284,400,1,1234,1,400,5,1500,3,700,790,24,700,5,1,7,1700,76,1.100000023841858,12,2,4,800
9,8,3.299999952316284,4.400000095367432,2,25,123,600,321,2.200000047683716,-25168,0,12,128.0,-78,80,-25168,-5,1.100000023841858,2.200000047683716,15,2.200000047683716,5,300,12.119999885559082,6.599999904632568,8.800000190734863,9.899999618530273,600,80,100,3,0,88,-78,6,5.5,0,333,111,4,0,0,78,0,1.100000023841858,10464,1000,1.100000023841858,11.109999656677246,4.400000095367432,128.0,-25168,10.100000381469727,-84,2.200000047683716,7.699999809265137,666,1,88,12,3.299999952316284,400,1,1234,1,400,5,1500,3,700,800,24,700,5,1,7,1700,78,1.100000023841858,11,2,4,800
9,8,3.299999952316284,4.400000095367432,2,25,123,600,321,2.200000047683716,-25166,0,12,128.0,-80,81,-25166,-5,1.100000023841858,2.200000047683716,15,2.200000047683716,5,300,12.119999885559082,6.599999904632568,8.800000190734863,9.899999618530273,600,81,100,3,0,89,-80,6,5.5,0,333,111,4,0,0,80,0,1.100000023841858,10484,1000,1.100000023841858,11.109999656677246,4.400000095367432,128.0,-25166,10.100000381469727,-82,2.200000047683716,7.699999809265137,666,1,89,12,3.299999952316284,400,1,1234,1,400,5,1500,3,700,810,24,700,5,1,7,1700,80,1.100000023841858,10,2,4,800
